[
  {
    "event_id": "1350_related_1",
    "type": "photo",
    "caption": "徐静拍摄妈妈准备的午餐便当，便当盒里有红烧肉、青菜和米饭，放在厨房餐桌上",
    "title": "IMG_20250219_064200",
    "datetime": "2025-02-19 06:42:00",
    "location": {
      "province": "上海市",
      "city": "上海市",
      "district": "浦东新区",
      "streetName": "张杨路",
      "streetNumber": "123号",
      "poi": "徐静家"
    },
    "faceRecognition": [
      "无"
    ],
    "imageTag": [
      "午餐便当",
      "红烧肉",
      "青菜",
      "米饭",
      "便当盒",
      "厨房",
      "早餐后"
    ],
    "ocrText": "无",
    "shoot_mode": "正常拍照",
    "image_size": "4032×3024"
  },
  {
    "event_id": "1350_related_1",
    "type": "photo",
    "caption": "徐静拍摄妈妈做的早餐小笼包，蒸笼里冒着热气，旁边放着醋碟",
    "title": "IMG_20250219_064500",
    "datetime": "2025-02-19 06:45:00",
    "location": {
      "province": "上海市",
      "city": "上海市",
      "district": "浦东新区",
      "streetName": "张杨路",
      "streetNumber": "123号",
      "poi": "徐静家"
    },
    "faceRecognition": [
      "无"
    ],
    "imageTag": [
      "上海小笼包",
      "蒸笼",
      "热气",
      "醋碟",
      "早餐",
      "厨房"
    ],
    "ocrText": "无",
    "shoot_mode": "微距",
    "image_size": "3024×4032"
  },
  {
    "event_id": "1351",
    "type": "photo",
    "caption": "徐静在手机屏幕上查看携程酒店预订确认短信，显示杭州科技园区汉庭酒店订单信息",
    "title": "IMG_20250219_073200",
    "datetime": "2025-02-19 07:32:00",
    "location": {
      "province": "上海市",
      "city": "上海市",
      "district": "浦东新区",
      "streetName": "张杨路",
      "streetNumber": "123号",
      "poi": "徐静家"
    },
    "faceRecognition": [
      "无"
    ],
    "imageTag": [
      "手机屏幕",
      "携程APP",
      "酒店预订",
      "订单确认",
      "杭州",
      "汉庭酒店"
    ],
    "ocrText": "携程 订单号CT202502190730123 杭州科技园区汉庭酒店 入住时间2025-02-20 退房时间2025-02-21 400-820-3355",
    "shoot_mode": "正常拍照",
    "image_size": "4032×3024"
  },
  {
    "event_id": "1352_related_1",
    "type": "photo",
    "caption": "徐静拍摄春季新品面料样品，彩色布料整齐摆放在办公桌上",
    "title": "IMG_20250219_080200",
    "datetime": "2025-02-19 08:02:00",
    "location": {
      "province": "上海市",
      "city": "上海市",
      "district": "浦东新区",
      "streetName": "世纪大道",
      "streetNumber": "88号",
      "poi": "服装店"
    },
    "faceRecognition": [
      "无"
    ],
    "imageTag": [
      "面料样品",
      "春季新品",
      "彩色布料",
      "办公桌",
      "服装店",
      "工作"
    ],
    "ocrText": "无",
    "shoot_mode": "微距",
    "image_size": "4032×3024"
  },
  {
    "event_id": "1356",
    "type": "photo",
    "caption": "徐静拍摄自己搭配的春季服装，浅色针织衫配深色半裙站在试衣镜前",
    "title": "IMG_20250219_124900",
    "datetime": "2025-02-19 12:49:00",
    "location": {
      "province": "上海市",
      "city": "上海市",
      "district": "浦东新区",
      "streetName": "世纪大道",
      "streetNumber": "88号",
      "poi": "服装店"
    },
    "faceRecognition": [
      "徐静"
    ],
    "imageTag": [
      "春季搭配",
      "针织衫",
      "半裙",
      "试衣镜",
      "服装店",
      "自拍"
    ],
    "ocrText": "无",
    "shoot_mode": "人像",
    "image_size": "3024×4032"
  },
  {
    "event_id": "1357",
    "type": "photo",
    "caption": "徐静拍摄足生堂门店招牌，金科路288号的门店外观",
    "title": "IMG_20250219_135000",
    "datetime": "2025-02-19 13:50:00",
    "location": {
      "province": "上海市",
      "city": "上海市",
      "district": "浦东新区",
      "streetName": "金科路",
      "streetNumber": "288号",
      "poi": "足生堂"
    },
    "faceRecognition": [
      "无"
    ],
    "imageTag": [
      "足生堂",
      "门店招牌",
      "金科路",
      "足部护理",
      "养生馆",
      "街景"
    ],
    "ocrText": "足生堂 经典足部护理套餐 金科路288号",
    "shoot_mode": "正常拍照",
    "image_size": "4032×3024"
  },
  {
    "event_id": "1357",
    "type": "photo",
    "caption": "徐静拍摄足部护理套餐价目表，显示各种服务项目和价格",
    "title": "IMG_20250219_140000",
    "datetime": "2025-02-19 14:00:00",
    "location": {
      "province": "上海市",
      "city": "上海市",
      "district": "浦东新区",
      "streetName": "金科路",
      "streetNumber": "288号",
      "poi": "足生堂"
    },
    "faceRecognition": [
      "无"
    ],
    "imageTag": [
      "价目表",
      "足部护理",
      "服务项目",
      "价格",
      "养生馆",
      "室内"
    ],
    "ocrText": "经典足部护理 198元 精油推拿 268元 全身放松 358元 会员享8折优惠",
    "shoot_mode": "正常拍照",
    "image_size": "3024×4032"
  },
  {
    "event_id": "1370",
    "type": "photo",
    "caption": "徐静在科技园区星巴克与哥哥徐强喝咖啡聊天，店内现代装修风格",
    "title": "IMG_20250220_133015",
    "datetime": "2025-02-20 13:30:15",
    "location": {
      "province": "上海市",
      "city": "上海市",
      "district": "浦东新区",
      "streetName": "张江路",
      "streetNumber": "XX号",
      "poi": "星巴克张江店"
    },
    "faceRecognition": [
      "徐静",
      "徐强"
    ],
    "imageTag": [
      "星巴克",
      "拿铁咖啡",
      "兄妹合影",
      "现代装修",
      "下午茶",
      "聊天",
      "玻璃杯",
      "木质桌面"
    ],
    "ocrText": "星巴克咖啡 - 张江店\n营业时间：7:00-22:00\n抹茶拿铁 38元",
    "shoot_mode": "人像",
    "image_size": "4032×3024"
  },
  {
    "event_id": "1370",
    "type": "photo",
    "caption": "徐静拍摄星巴克抹茶拿铁特写，咖啡表面有精美拉花",
    "title": "IMG_20250220_133125",
    "datetime": "2025-02-20 13:31:25",
    "location": {
      "province": "上海市",
      "city": "上海市",
      "district": "浦东新区",
      "streetName": "张江路",
      "streetNumber": "XX号",
      "poi": "星巴克张江店"
    },
    "faceRecognition": [
      "无"
    ],
    "imageTag": [
      "抹茶拿铁",
      "咖啡拉花",
      "特写",
      "绿色抹茶",
      "奶泡",
      "陶瓷杯",
      "甜品"
    ],
    "ocrText": "无",
    "shoot_mode": "微距",
    "image_size": "3024×4032"
  },
  {
    "event_id": "1376_related_1",
    "type": "photo",
    "caption": "徐静在办公室整理三家供应商资料文件，准备发送邮件",
    "title": "IMG_20250220_163800",
    "datetime": "2025-02-20 16:38:00",
    "location": {
      "province": "上海市",
      "city": "上海市",
      "district": "浦东新区",
      "streetName": "世纪大道",
      "streetNumber": "88号",
      "poi": "服装零售店办公室"
    },
    "faceRecognition": [
      "无"
    ],
    "imageTag": [
      "供应商资料",
      "文件整理",
      "办公桌",
      "电脑屏幕",
      "文件夹",
      "工作文档",
      "电子邮件"
    ],
    "ocrText": "供应商评估报告\n上海时尚服饰有限公司\n2025年2月20日\n供应商A：广州风格服饰\n供应商B：杭州江南时装\n供应商C：深圳科技面料",
    "shoot_mode": "正常拍照",
    "image_size": "4032×3024"
  },
  {
    "event_id": "1376_related_1",
    "type": "photo",
    "caption": "徐静扫描重要合同文档，使用手机文档扫描功能",
    "title": "IMG_20250220_163920",
    "datetime": "2025-02-20 16:39:20",
    "location": {
      "province": "上海市",
      "city": "上海市",
      "district": "浦东新区",
      "streetName": "世纪大道",
      "streetNumber": "88号",
      "poi": "服装零售店办公室"
    },
    "faceRecognition": [
      "无"
    ],
    "imageTag": [
      "文档扫描",
      "合同文件",
      "A4纸",
      "办公环境",
      "手机拍摄",
      "文字清晰",
      "工作记录"
    ],
    "ocrText": "服装采购合同\n甲方：上海时尚服饰零售企业\n乙方：广州风格服饰有限公司\n合同金额：￥150,000元\n签约日期：2025年2月15日\n有效期至：2026年2月14日",
    "shoot_mode": "正常拍照",
    "image_size": "3024×4032"
  },
  {
    "event_id": "1380_related_1",
    "type": "photo",
    "caption": "徐静在酒店房间拍摄窗外城市夜景，高楼灯光璀璨",
    "title": "IMG_20250220_221800",
    "datetime": "2025-02-20 22:18:00",
    "location": {
      "province": "上海市",
      "city": "上海市",
      "district": "黄浦区",
      "streetName": "南京东路",
      "streetNumber": "XX号",
      "poi": "外滩酒店"
    },
    "faceRecognition": [
      "无"
    ],
    "imageTag": [
      "城市夜景",
      "酒店窗外",
      "高楼大厦",
      "灯光璀璨",
      "黄浦江",
      "东方明珠",
      "夜晚城市"
    ],
    "ocrText": "无",
    "shoot_mode": "夜景",
    "image_size": "4032×3024"
  },
  {
    "event_id": "1380_related_1",
    "type": "photo",
    "caption": "徐静拍摄酒店准备的欢迎水果和甜点，包括草莓蛋糕",
    "title": "IMG_20250220_221930",
    "datetime": "2025-02-20 22:19:30",
    "location": {
      "province": "上海市",
      "city": "上海市",
      "district": "黄浦区",
      "streetName": "南京东路",
      "streetNumber": "XX号",
      "poi": "外滩酒店"
    },
    "faceRecognition": [
      "无"
    ],
    "imageTag": [
      "欢迎水果",
      "草莓蛋糕",
      "酒店服务",
      "甜品特写",
      "新鲜水果",
      "瓷盘",
      "美食记录"
    ],
    "ocrText": "无",
    "shoot_mode": "微距",
    "image_size": "3024×4032"
  },
  {
    "event_id": "1384_related_1",
    "type": "photo",
    "caption": "徐静在家享用早餐，桌上有小笼包和抹茶拿铁，背景是厨房",
    "title": "IMG_20250221_070905",
    "datetime": "2025-02-21 07:09:05",
    "location": {
      "province": "上海市",
      "city": "上海市",
      "district": "浦东新区",
      "streetName": "张杨路",
      "streetNumber": "123号",
      "poi": "徐静家"
    },
    "faceRecognition": [
      "无"
    ],
    "imageTag": [
      "上海小笼包",
      "抹茶拿铁",
      "早餐",
      "蒸笼",
      "陶瓷餐具",
      "厨房",
      "早晨"
    ],
    "ocrText": "无",
    "shoot_mode": "正常拍照",
    "image_size": "4032×3024"
  },
  {
    "event_id": "1384_related_1",
    "type": "photo",
    "caption": "高铁车票放在背包上，显示上海虹桥站至杭州东站信息",
    "title": "IMG_20250221_071015",
    "datetime": "2025-02-21 07:10:15",
    "location": {
      "province": "上海市",
      "city": "上海市",
      "district": "闵行区",
      "streetName": "申贵路",
      "streetNumber": "1500号",
      "poi": "上海虹桥站"
    },
    "faceRecognition": [
      "无"
    ],
    "imageTag": [
      "高铁车票",
      "上海虹桥",
      "杭州东",
      "G1234次",
      "8:30发车",
      "车票特写"
    ],
    "ocrText": "上海虹桥-杭州东 G1234次 2025-02-21 08:30 二等座 票价：73元",
    "shoot_mode": "微距",
    "image_size": "3024×4032"
  },
  {
    "event_id": "1385_related_1",
    "type": "photo",
    "caption": "徐静在办公室拍摄电脑屏幕上的会员系统技术参数文档",
    "title": "IMG_20250221_074315",
    "datetime": "2025-02-21 07:43:15",
    "location": {
      "province": "上海市",
      "city": "上海市",
      "district": "浦东新区",
      "streetName": "世纪大道",
      "streetNumber": "88号",
      "poi": "服装零售店办公室"
    },
    "faceRecognition": [
      "无"
    ],
    "imageTag": [
      "电脑屏幕",
      "技术参数",
      "会员系统",
      "文档",
      "办公桌",
      "键盘",
      "工作"
    ],
    "ocrText": "会员系统技术参数 v2.1 2025-02-21 支持并发用户：1000 数据库：MySQL 8.0",
    "shoot_mode": "正常拍照",
    "image_size": "4032×3024"
  },
  {
    "event_id": "1385_related_1",
    "type": "photo",
    "caption": "徐静与同事陈丽在会议室讨论技术文档，背景是白板",
    "title": "IMG_20250221_074425",
    "datetime": "2025-02-21 07:44:25",
    "location": {
      "province": "上海市",
      "city": "上海市",
      "district": "浦东新区",
      "streetName": "世纪大道",
      "streetNumber": "88号",
      "poi": "服装零售店会议室"
    },
    "faceRecognition": [
      "徐静",
      "陈丽"
    ],
    "imageTag": [
      "同事合影",
      "会议室",
      "技术讨论",
      "白板",
      "工作服",
      "职业女性"
    ],
    "ocrText": "无",
    "shoot_mode": "人像",
    "image_size": "3024×4032"
  },
  {
    "event_id": "1394_related_1",
    "type": "photo",
    "caption": "徐静在家准备晚餐，清蒸鲈鱼在蒸锅中冒着热气",
    "title": "IMG_20250221_160215",
    "datetime": "2025-02-21 16:02:15",
    "location": {
      "province": "上海市",
      "city": "上海市",
      "district": "浦东新区",
      "streetName": "张杨路",
      "streetNumber": "123号",
      "poi": "徐静家厨房"
    },
    "faceRecognition": [
      "无"
    ],
    "imageTag": [
      "清蒸鲈鱼",
      "蒸锅",
      "厨房",
      "晚餐准备",
      "香菜",
      "姜丝",
      "家常菜"
    ],
    "ocrText": "无",
    "shoot_mode": "正常拍照",
    "image_size": "4032×3024"
  },
  {
    "event_id": "1394_related_1",
    "type": "photo",
    "caption": "徐静拍摄餐桌布置，摆放着餐具和草莓蛋糕",
    "title": "IMG_20250221_160330",
    "datetime": "2025-02-21 16:03:30",
    "location": {
      "province": "上海市",
      "city": "上海市",
      "district": "浦东新区",
      "streetName": "张杨路",
      "streetNumber": "123号",
      "poi": "徐静家餐厅"
    },
    "faceRecognition": [
      "无"
    ],
    "imageTag": [
      "餐桌布置",
      "草莓蛋糕",
      "餐具",
      "餐巾",
      "烛台",
      "家庭晚餐",
      "甜点"
    ],
    "ocrText": "无",
    "shoot_mode": "微距",
    "image_size": "3024×4032"
  }
]