[
  {
    "event_id": "516",
    "type": "photo",
    "caption": "徐静在书桌前拍摄财务管理高级课程注册成功页面，笔记本电脑屏幕显示MOOC平台界面",
    "title": "IMG_20250107_105300",
    "datetime": "2025-01-07 10:53:00",
    "location": {
      "province": "上海市",
      "city": "上海市",
      "district": "浦东新区",
      "streetName": "张杨路",
      "streetNumber": "123号",
      "poi": "徐静家"
    },
    "faceRecognition": "无",
    "imageTag": [
      "笔记本电脑",
      "MOOC平台",
      "财务管理课程",
      "注册成功",
      "屏幕截图",
      "学习资料",
      "在线教育"
    ],
    "ocrText": "中国大学MOOC 财务管理高级课程 订单金额5800元 客服400-123-4567",
    "shoot_mode": "正常拍照",
    "image_size": "3024×4032"
  },
  {
    "event_id": "516",
    "type": "photo",
    "caption": "徐静手持《基础会计学》教材封面特写，背景是书桌和文具",
    "title": "IMG_20250107_120800",
    "datetime": "2025-01-07 12:08:00",
    "location": {
      "province": "上海市",
      "city": "上海市",
      "district": "浦东新区",
      "streetName": "张杨路",
      "streetNumber": "123号",
      "poi": "徐静家"
    },
    "faceRecognition": "无",
    "imageTag": [
      "基础会计学",
      "教材封面",
      "书籍特写",
      "学习资料",
      "财务管理",
      "二手书"
    ],
    "ocrText": "基础会计学 高等教育出版社 ISBN978-7-04-051234-5",
    "shoot_mode": "微距",
    "image_size": "3024×4032"
  },
  {
    "event_id": "519",
    "type": "photo",
    "caption": "徐静在办公室整理消防培训物料清单，桌上摆放灭火器和安全手册",
    "title": "IMG_20250107_123500",
    "datetime": "2025-01-07 12:35:00",
    "location": {
      "province": "上海市",
      "city": "上海市",
      "district": "浦东新区",
      "streetName": "世纪大道",
      "streetNumber": "88号",
      "poi": "服装零售店"
    },
    "faceRecognition": "无",
    "imageTag": [
      "消防培训",
      "物料清单",
      "灭火器",
      "安全手册",
      "办公桌",
      "工作准备"
    ],
    "ocrText": "消防培训物料清单 灭火器2个 安全手册10本 培训时间2025-01-08 09:00",
    "shoot_mode": "正常拍照",
    "image_size": "4032×3024"
  },
  {
    "event_id": "519",
    "type": "photo",
    "caption": "徐静与同事赵敏在消防器材前合影，两人都穿着工作制服",
    "title": "IMG_20250107_123600",
    "datetime": "2025-01-07 12:36:00",
    "location": {
      "province": "上海市",
      "city": "上海市",
      "district": "浦东新区",
      "streetName": "世纪大道",
      "streetNumber": "88号",
      "poi": "服装零售店"
    },
    "faceRecognition": [
      "赵敏"
    ],
    "imageTag": [
      "同事合影",
      "工作制服",
      "消防器材",
      "职场",
      "团队协作",
      "微笑"
    ],
    "ocrText": "无",
    "shoot_mode": "人像",
    "image_size": "4032×3024"
  },
  {
    "event_id": "527",
    "type": "photo",
    "caption": "徐静拍摄店内促销活动陈列，货架上挂满打折标签和新款服装",
    "title": "IMG_20250107_192000",
    "datetime": "2025-01-07 19:20:00",
    "location": {
      "province": "上海市",
      "city": "上海市",
      "district": "浦东新区",
      "streetName": "世纪大道",
      "streetNumber": "88号",
      "poi": "服装零售店"
    },
    "faceRecognition": "无",
    "imageTag": [
      "促销活动",
      "服装陈列",
      "打折标签",
      "新款女装",
      "货架",
      "零售"
    ],
    "ocrText": "春季促销 全场5折起 满500减100 活动时间2025-01-08",
    "shoot_mode": "正常拍照",
    "image_size": "4032×3024"
  },
  {
    "event_id": "528",
    "type": "photo",
    "caption": "徐静在餐厅预订确认页面截图，显示周末用餐时间和位置信息",
    "title": "IMG_20250107_202500",
    "datetime": "2025-01-07 20:25:00",
    "location": {
      "province": "上海市",
      "city": "上海市",
      "district": "浦东新区",
      "streetName": "张杨路",
      "streetNumber": "123号",
      "poi": "徐静家"
    },
    "faceRecognition": "无",
    "imageTag": [
      "餐厅预订",
      "手机截图",
      "周末聚餐",
      "闺蜜约会",
      "用餐确认"
    ],
    "ocrText": "外滩X餐厅 预订时间2025-01-09 18:30 2人位 已确认",
    "shoot_mode": "正常拍照",
    "image_size": "3024×4032"
  },
  {
    "event_id": "528",
    "type": "photo",
    "caption": "徐静与闺蜜张婷在以往聚餐时的合影，两人举杯微笑",
    "title": "IMG_20250107_202600",
    "datetime": "2025-01-07 20:26:00",
    "location": {
      "province": "上海市",
      "city": "上海市",
      "district": "黄浦区",
      "streetName": "中山东一路",
      "streetNumber": "XX号",
      "poi": "外滩X餐厅"
    },
    "faceRecognition": [
      "张婷"
    ],
    "imageTag": [
      "闺蜜合影",
      "举杯",
      "餐厅环境",
      "美食",
      "聚会",
      "微笑"
    ],
    "ocrText": "无",
    "shoot_mode": "人像",
    "image_size": "4032×3024"
  },
  {
    "event_id": "514",
    "type": "photo",
    "caption": "徐静拍摄优甲乐药品包装特写，药盒放在医保结算单旁边",
    "title": "IMG_20250107_102500",
    "datetime": "2025-01-07 10:25:00",
    "location": {
      "province": "上海市",
      "city": "上海市",
      "district": "浦东新区",
      "streetName": "张杨路",
      "streetNumber": "123号",
      "poi": "徐静家"
    },
    "faceRecognition": "无",
    "imageTag": [
      "优甲乐",
      "药品包装",
      "医保结算",
      "药盒特写",
      "健康管理"
    ],
    "ocrText": "优甲乐 左甲状腺素钠片 50μg×100片 生产批号20241015 有效期20261014",
    "shoot_mode": "微距",
    "image_size": "3024×4032"
  },
  {
    "event_id": "514",
    "type": "photo",
    "caption": "徐静手持医保结算单，显示个人支付金额和医院信息",
    "title": "IMG_20250107_102600",
    "datetime": "2025-01-07 10:26:00",
    "location": {
      "province": "上海市",
      "city": "上海市",
      "district": "浦东新区",
      "streetName": "张杨路",
      "streetNumber": "123号",
      "poi": "徐静家"
    },
    "faceRecognition": "无",
    "imageTag": [
      "医保结算单",
      "医院票据",
      "个人支付",
      "医疗费用",
      "文档扫描"
    ],
    "ocrText": "复旦大学附属妇产科医院 医保结算单 个人支付85元 结算时间2025-01-07",
    "shoot_mode": "正常拍照",
    "image_size": "3024×4032"
  },
  {
    "event_id": "533_related_1",
    "type": "photo",
    "caption": "陈丽在巡店时拍摄智能试衣镜内测画面，背景是服装店陈列区",
    "title": "IMG_20250108_075800",
    "datetime": "2025-01-08 07:58:00",
    "location": {
      "province": "上海市",
      "city": "上海市",
      "district": "浦东新区",
      "streetName": "世纪大道",
      "streetNumber": "88号",
      "poi": "明芳服饰旗舰店"
    },
    "faceRecognition": [
      "陈丽"
    ],
    "imageTag": [
      "智能试衣镜",
      "内测",
      "服装店",
      "陈列架",
      "消防整改",
      "巡店记录",
      "工作检查"
    ],
    "ocrText": "智能试衣镜内测版 V1.0 - 2025年1月8日",
    "shoot_mode": "正常拍照",
    "image_size": "4032×3024"
  },
  {
    "event_id": "533_related_1",
    "type": "photo",
    "caption": "消防整改记录表贴在墙上，包含检查项目和负责人签字",
    "title": "IMG_20250108_080200",
    "datetime": "2025-01-08 08:02:00",
    "location": {
      "province": "上海市",
      "city": "上海市",
      "district": "浦东新区",
      "streetName": "世纪大道",
      "streetNumber": "88号",
      "poi": "明芳服饰旗舰店"
    },
    "faceRecognition": [
      "无"
    ],
    "imageTag": [
      "消防整改表",
      "安全检查",
      "记录表",
      "签字确认",
      "工作文档",
      "店面管理"
    ],
    "ocrText": "消防安全检查记录表 检查日期：2025-01-08 负责人：陈丽",
    "shoot_mode": "正常拍照",
    "image_size": "3024×4032"
  },
  {
    "event_id": "544",
    "type": "photo",
    "caption": "智能导购系统方案书封面放在办公桌上，旁边放着咖啡杯",
    "title": "IMG_20250108_163500",
    "datetime": "2025-01-08 16:35:00",
    "location": {
      "province": "上海市",
      "city": "上海市",
      "district": "浦东新区",
      "streetName": "世纪大道",
      "streetNumber": "88号",
      "poi": "明芳服饰办公室"
    },
    "faceRecognition": [
      "无"
    ],
    "imageTag": [
      "智能导购系统",
      "方案书",
      "办公桌",
      "咖啡杯",
      "商务文档",
      "供应商资料"
    ],
    "ocrText": "智能导购系统解决方案 明芳服饰专用版 报价：¥88,000",
    "shoot_mode": "正常拍照",
    "image_size": "4032×3024"
  },
  {
    "event_id": "547_related_1",
    "type": "photo",
    "caption": "峰会现场PPT展示智能零售趋势，大屏幕显示数据分析图表",
    "title": "IMG_20250108_193000",
    "datetime": "2025-01-08 19:30:00",
    "location": {
      "province": "上海市",
      "city": "上海市",
      "district": "黄浦区",
      "streetName": "南京东路",
      "streetNumber": "XX号",
      "poi": "上海国际会议中心"
    },
    "faceRecognition": [
      "无"
    ],
    "imageTag": [
      "峰会PPT",
      "智能零售",
      "数据分析",
      "大屏幕",
      "商务会议",
      "行业趋势"
    ],
    "ocrText": "2025智能零售峰会 主题：数字化转型新机遇 时间：2025年1月8日",
    "shoot_mode": "正常拍照",
    "image_size": "4032×3024"
  },
  {
    "event_id": "547_related_1",
    "type": "photo",
    "caption": "收集的供应商资料堆放在会议桌上，包括宣传册和名片",
    "title": "IMG_20250108_193500",
    "datetime": "2025-01-08 19:35:00",
    "location": {
      "province": "上海市",
      "city": "上海市",
      "district": "黄浦区",
      "streetName": "南京东路",
      "streetNumber": "XX号",
      "poi": "上海国际会议中心"
    },
    "faceRecognition": [
      "无"
    ],
    "imageTag": [
      "供应商资料",
      "宣传册",
      "名片",
      "会议桌",
      "资料收集",
      "商务材料"
    ],
    "ocrText": "智能零售供应商名录 2025年度 包含联系方式与产品介绍",
    "shoot_mode": "正常拍照",
    "image_size": "3024×4032"
  },
  {
    "event_id": "555_related_1",
    "type": "photo",
    "caption": "G1234次高铁车票特写，显示发车时间20:20和座位信息",
    "title": "IMG_20250109_073000",
    "datetime": "2025-01-09 07:30:00",
    "location": {
      "province": "上海市",
      "city": "上海市",
      "district": "浦东新区",
      "streetName": "张杨路",
      "streetNumber": "123号",
      "poi": "徐静家"
    },
    "faceRecognition": "无",
    "imageTag": [
      "高铁票",
      "G1234次",
      "车票",
      "二维码",
      "座位号",
      "发车时间",
      "纸质票据",
      "蓝色车票",
      "车次信息",
      "检票口"
    ],
    "ocrText": "G1234次 上海虹桥-杭州东 2025-01-09 20:20开 08车12F号 二等座 票价73元",
    "shoot_mode": "微距",
    "image_size": "3024×4032"
  },
  {
    "event_id": "555_related_1",
    "type": "photo",
    "caption": "李雪梅在高铁站候车室自拍，身后是检票口和候车旅客",
    "title": "IMG_20250109_073200",
    "datetime": "2025-01-09 07:32:00",
    "location": {
      "province": "上海市",
      "city": "上海市",
      "district": "闵行区",
      "streetName": "申贵路",
      "streetNumber": "1500号",
      "poi": "虹桥火车站"
    },
    "faceRecognition": [
      "李雪梅"
    ],
    "imageTag": [
      "自拍",
      "候车室",
      "行李箱",
      "检票口",
      "旅客",
      "车站",
      "旅行",
      "微笑",
      "羽绒服",
      "双肩包"
    ],
    "ocrText": "无",
    "shoot_mode": "人像",
    "image_size": "4032×3024"
  },
  {
    "event_id": "567",
    "type": "photo",
    "caption": "会议资料手写笔记特写，包含重点内容和行动计划",
    "title": "IMG_20250109_200800",
    "datetime": "2025-01-09 20:08:00",
    "location": {
      "province": "上海市",
      "city": "上海市",
      "district": "浦东新区",
      "streetName": "张杨路",
      "streetNumber": "123号",
      "poi": "徐静家"
    },
    "faceRecognition": "无",
    "imageTag": [
      "手写笔记",
      "会议记录",
      "签字笔",
      "笔记本",
      "重点标记",
      "行动计划",
      "圆珠笔",
      "纸张",
      "工作笔记",
      "潦草字迹"
    ],
    "ocrText": "智能库存管理系统测试计划\n1. 团队培训安排\n2. 功能测试要点\n3. 供应商反馈收集\n2025-01-16前完成",
    "shoot_mode": "微距",
    "image_size": "3024×4032"
  },
  {
    "event_id": "567",
    "type": "photo",
    "caption": "李雪梅视频通话截图，正在讨论会议内容",
    "title": "IMG_20250109_200500",
    "datetime": "2025-01-09 20:05:00",
    "location": {
      "province": "上海市",
      "city": "上海市",
      "district": "浦东新区",
      "streetName": "张杨路",
      "streetNumber": "123号",
      "poi": "徐静家"
    },
    "faceRecognition": [
      "李雪梅"
    ],
    "imageTag": [
      "视频通话",
      "屏幕截图",
      "会议讨论",
      "笔记本电脑",
      "视频界面",
      "远程交流",
      "工作沟通",
      "耳机",
      "室内灯光"
    ],
    "ocrText": "无",
    "shoot_mode": "正常拍照",
    "image_size": "1920×1080"
  },
  {
    "event_id": "573",
    "type": "photo",
    "caption": "峰会资料整理照片，桌面上散落着会议手册和名片",
    "title": "IMG_20250109_233000",
    "datetime": "2025-01-09 23:30:00",
    "location": {
      "province": "上海市",
      "city": "上海市",
      "district": "浦东新区",
      "streetName": "张杨路",
      "streetNumber": "123号",
      "poi": "徐静家"
    },
    "faceRecognition": "无",
    "imageTag": [
      "会议资料",
      "文件整理",
      "名片",
      "会议手册",
      "办公桌",
      "文件夹",
      "工作台",
      "纸张堆叠",
      "工作准备"
    ],
    "ocrText": "江南时尚峰会 2025-01-08\n智能零售论坛\n主办方：上海市商务委员会",
    "shoot_mode": "正常拍照",
    "image_size": "4032×3024"
  },
  {
    "event_id": "573",
    "type": "photo",
    "caption": "团队培训材料扫描件，包含销售技巧和产品知识",
    "title": "IMG_20250109_233500",
    "datetime": "2025-01-09 23:35:00",
    "location": {
      "province": "上海市",
      "city": "上海市",
      "district": "浦东新区",
      "streetName": "张杨路",
      "streetNumber": "123号",
      "poi": "徐静家"
    },
    "faceRecognition": "无",
    "imageTag": [
      "文档扫描",
      "培训材料",
      "销售技巧",
      "产品知识",
      "PDF文档",
      "电子文件",
      "工作资料",
      "教学大纲",
      "培训计划"
    ],
    "ocrText": "销售团队培训材料\n2025年1月版\n包含：客户沟通技巧、产品知识、售后服务流程\n制定人：徐静",
    "shoot_mode": "正常拍照",
    "image_size": "3024×4032"
  },
  {
    "event_id": "581",
    "type": "photo",
    "caption": "徐静和王丽在南京东路步行街的甜品店享用草莓蛋糕，店内装饰温馨现代",
    "title": "IMG_20250110_140200",
    "datetime": "2025-01-10 14:02:00",
    "location": {
      "province": "上海市",
      "city": "上海市",
      "district": "黄浦区",
      "streetName": "南京东路",
      "streetNumber": "XX号",
      "poi": "南京东路步行街"
    },
    "faceRecognition": [
      "徐静",
      "王丽"
    ],
    "imageTag": [
      "草莓蛋糕",
      "甜品店",
      "闺蜜聚会",
      "南京东路",
      "下午茶",
      "玻璃杯",
      "木质桌椅"
    ],
    "ocrText": "无",
    "shoot_mode": "人像",
    "image_size": "4032×3024"
  },
  {
    "event_id": "581",
    "type": "photo",
    "caption": "徐静拍摄抹茶拿铁特写，饮品表面有拉花装饰，背景是甜品店柜台",
    "title": "IMG_20250110_140500",
    "datetime": "2025-01-10 14:05:00",
    "location": {
      "province": "上海市",
      "city": "上海市",
      "district": "黄浦区",
      "streetName": "南京东路",
      "streetNumber": "XX号",
      "poi": "南京东路步行街"
    },
    "faceRecognition": [
      "无"
    ],
    "imageTag": [
      "抹茶拿铁",
      "拉花",
      "饮品特写",
      "甜品店",
      "陶瓷杯",
      "绿色饮品",
      "柜台背景"
    ],
    "ocrText": "无",
    "shoot_mode": "微距",
    "image_size": "3024×4032"
  },
  {
    "event_id": "586",
    "type": "photo",
    "caption": "徐静和赵小美在浦东新区羽毛球馆打球，场地灯光明亮，背景有其他运动者",
    "title": "IMG_20250110_190500",
    "datetime": "2025-01-10 19:05:00",
    "location": {
      "province": "上海市",
      "city": "上海市",
      "district": "浦东新区",
      "streetName": "张杨路",
      "streetNumber": "XX号",
      "poi": "浦东新区体育中心"
    },
    "faceRecognition": [
      "徐静",
      "赵小美"
    ],
    "imageTag": [
      "羽毛球",
      "运动",
      "球拍",
      "体育场馆",
      "灯光",
      "运动服",
      "高中同学"
    ],
    "ocrText": "无",
    "shoot_mode": "正常拍照",
    "image_size": "4032×3024"
  },
  {
    "event_id": "586",
    "type": "photo",
    "caption": "徐静拍摄羽毛球拍特写，球拍握把有防滑胶带，背景是球场地面",
    "title": "IMG_20250110_190800",
    "datetime": "2025-01-10 19:08:00",
    "location": {
      "province": "上海市",
      "city": "上海市",
      "district": "浦东新区",
      "streetName": "张杨路",
      "streetNumber": "XX号",
      "poi": "浦东新区体育中心"
    },
    "faceRecognition": [
      "无"
    ],
    "imageTag": [
      "羽毛球拍",
      "特写",
      "防滑胶带",
      "运动器材",
      "碳纤维",
      "球场地面"
    ],
    "ocrText": "无",
    "shoot_mode": "微距",
    "image_size": "3024×4032"
  },
  {
    "event_id": "587",
    "type": "photo",
    "caption": "徐静在服装店整理新款服装货架，货架上挂满时尚女装，背景是店内灯光",
    "title": "IMG_20250110_193000",
    "datetime": "2025-01-10 19:30:00",
    "location": {
      "province": "上海市",
      "city": "上海市",
      "district": "浦东新区",
      "streetName": "世纪大道",
      "streetNumber": "88号",
      "poi": "时尚服饰零售店"
    },
    "faceRecognition": [
      "无"
    ],
    "imageTag": [
      "服装货架",
      "新款女装",
      "整理物品",
      "零售店",
      "时尚服饰",
      "衣架",
      "店内灯光"
    ],
    "ocrText": "无",
    "shoot_mode": "正常拍照",
    "image_size": "4032×3024"
  },
  {
    "event_id": "587",
    "type": "photo",
    "caption": "徐静扫描采购单文档，单据上显示商品名称、数量和到货时间",
    "title": "IMG_20250110_193500",
    "datetime": "2025-01-10 19:35:00",
    "location": {
      "province": "上海市",
      "city": "上海市",
      "district": "浦东新区",
      "streetName": "世纪大道",
      "streetNumber": "88号",
      "poi": "时尚服饰零售店"
    },
    "faceRecognition": [
      "无"
    ],
    "imageTag": [
      "采购单",
      "文档扫描",
      "办公桌",
      "文字记录",
      "工作文件",
      "圆珠笔",
      "纸质单据"
    ],
    "ocrText": "采购单 - 商品：新款大衣 数量：50件 到货时间：2025-01-12 10:00 供应商：广州风尚",
    "shoot_mode": "正常拍照",
    "image_size": "3024×4032"
  },
  {
    "event_id": "592",
    "type": "photo",
    "caption": "徐静在数字化转型峰会现场拍摄PPT内容，展示供应商联系方式和会议议程",
    "title": "IMG_20250111_063600",
    "datetime": "2025-01-11 06:36:00",
    "location": {
      "province": "上海市",
      "city": "上海市",
      "district": "浦东新区",
      "streetName": "世纪大道",
      "streetNumber": "88号",
      "poi": "上海国际会议中心"
    },
    "faceRecognition": [
      "无"
    ],
    "imageTag": [
      "数字化转型",
      "峰会",
      "PPT",
      "供应商",
      "联系方式",
      "会议议程",
      "投影屏幕",
      "商务会议"
    ],
    "ocrText": "数字化转型峰会 2025年1月11日 上海国际会议中心 主办方：上海市商务委员会",
    "shoot_mode": "正常拍照",
    "image_size": "4032×3024"
  },
  {
    "event_id": "592",
    "type": "photo",
    "caption": "徐静与李雪梅在峰会签到处合影，背景是会议主题背景板",
    "title": "IMG_20250111_064000",
    "datetime": "2025-01-11 06:40:00",
    "location": {
      "province": "上海市",
      "city": "上海市",
      "district": "浦东新区",
      "streetName": "世纪大道",
      "streetNumber": "88号",
      "poi": "上海国际会议中心"
    },
    "faceRecognition": [
      "李雪梅",
      "徐静"
    ],
    "imageTag": [
      "峰会合影",
      "李雪梅",
      "签到台",
      "背景板",
      "商务着装",
      "微笑",
      "会议现场"
    ],
    "ocrText": "数字化转型峰会 签到处 2025.01.11",
    "shoot_mode": "人像",
    "image_size": "3024×4032"
  },
  {
    "event_id": "594",
    "type": "photo",
    "caption": "徐静拍摄消防培训场地布置情况，展示灭火器和安全标识",
    "title": "IMG_20250111_073800",
    "datetime": "2025-01-11 07:38:00",
    "location": {
      "province": "上海市",
      "city": "上海市",
      "district": "浦东新区",
      "streetName": "张杨路",
      "streetNumber": "123号",
      "poi": "小区活动中心"
    },
    "faceRecognition": [
      "无"
    ],
    "imageTag": [
      "消防培训",
      "场地布置",
      "灭火器",
      "安全标识",
      "应急设备",
      "红色消防栓",
      "培训材料"
    ],
    "ocrText": "消防安全培训 时间：2025年1月11日 地点：小区活动中心",
    "shoot_mode": "正常拍照",
    "image_size": "4032×3024"
  },
  {
    "event_id": "596_related_1",
    "type": "photo",
    "caption": "徐静在日料店拍摄美食拼盘，包括三文鱼刺身和寿司",
    "title": "IMG_20250111_103500",
    "datetime": "2025-01-11 10:35:00",
    "location": {
      "province": "上海市",
      "city": "上海市",
      "district": "黄浦区",
      "streetName": "南京东路",
      "streetNumber": "299号",
      "poi": "岩田日料店"
    },
    "faceRecognition": [
      "无"
    ],
    "imageTag": [
      "日料",
      "三文鱼刺身",
      "寿司",
      "拼盘",
      "美食",
      "日本料理",
      "餐具",
      "木质桌面"
    ],
    "ocrText": "岩田日料 人均200元 包间预订电话：021-63214567",
    "shoot_mode": "微距",
    "image_size": "4032×3024"
  },
  {
    "event_id": "598",
    "type": "photo",
    "caption": "徐静拍摄净水器滤芯安装过程，展示新旧滤芯对比",
    "title": "IMG_20250111_120500",
    "datetime": "2025-01-11 12:05:00",
    "location": {
      "province": "上海市",
      "city": "上海市",
      "district": "浦东新区",
      "streetName": "张杨路",
      "streetNumber": "123号",
      "poi": "家中厨房"
    },
    "faceRecognition": [
      "无"
    ],
    "imageTag": [
      "净水器",
      "滤芯",
      "更换",
      "家电维护",
      "白色滤芯",
      "厨房",
      "安装过程"
    ],
    "ocrText": "京东订单号：JD2025011112201234 净水器滤芯",
    "shoot_mode": "正常拍照",
    "image_size": "3024×4032"
  },
  {
    "event_id": "601",
    "type": "photo",
    "caption": "徐静拍摄定制面料样品细节，展示布料纹理和颜色",
    "title": "IMG_20250111_143600",
    "datetime": "2025-01-11 14:36:00",
    "location": {
      "province": "上海市",
      "city": "上海市",
      "district": "浦东新区",
      "streetName": "世纪大道",
      "streetNumber": "88号",
      "poi": "服装店工作间"
    },
    "faceRecognition": [
      "无"
    ],
    "imageTag": [
      "面料样品",
      "布料纹理",
      "定制服装",
      "纺织细节",
      "色彩搭配",
      "材质特写"
    ],
    "ocrText": "定制面料样品 客户：张女士 寄出日期：2025年1月11日",
    "shoot_mode": "微距",
    "image_size": "4032×3024"
  },
  {
    "event_id": "602",
    "type": "photo",
    "caption": "徐静在小区门口菜市场拍摄新鲜香菇和豆腐",
    "title": "IMG_20250111_150800",
    "datetime": "2025-01-11 15:08:00",
    "location": {
      "province": "上海市",
      "city": "上海市",
      "district": "浦东新区",
      "streetName": "张杨路",
      "streetNumber": "XX号",
      "poi": "小区菜市场"
    },
    "faceRecognition": [
      "无"
    ],
    "imageTag": [
      "香菇",
      "豆腐",
      "食材",
      "菜市场",
      "新鲜蔬菜",
      "购物袋",
      "晚餐准备"
    ],
    "ocrText": "新鲜香菇 12元/斤 老豆腐 5元/块",
    "shoot_mode": "正常拍照",
    "image_size": "3024×4032"
  },
  {
    "event_id": "604_related_1",
    "type": "photo",
    "caption": "徐静扫描智能库存管理系统演示视频的二维码",
    "title": "IMG_20250111_155400",
    "datetime": "2025-01-11 15:54:00",
    "location": {
      "province": "上海市",
      "city": "上海市",
      "district": "浦东新区",
      "streetName": "世纪大道",
      "streetNumber": "88号",
      "poi": "服装店办公室"
    },
    "faceRecognition": [
      "无"
    ],
    "imageTag": [
      "二维码",
      "智能库存",
      "管理系统",
      "演示视频",
      "商务扫描",
      "手机屏幕"
    ],
    "ocrText": "智能库存管理系统演示视频 扫描二维码观看 供应商洽谈预约",
    "shoot_mode": "正常拍照",
    "image_size": "3024×4032"
  },
  {
    "event_id": "608_related_1",
    "type": "photo",
    "caption": "徐静拍摄日料店预订确认短信，展示包间信息",
    "title": "IMG_20250111_184600",
    "datetime": "2025-01-11 18:46:00",
    "location": {
      "province": "上海市",
      "city": "上海市",
      "district": "浦东新区",
      "streetName": "张杨路",
      "streetNumber": "123号",
      "poi": "家中客厅"
    },
    "faceRecognition": [
      "无"
    ],
    "imageTag": [
      "手机屏幕",
      "短信",
      "日料预订",
      "包间确认",
      "岩田日料",
      "聚会安排"
    ],
    "ocrText": "15号晚岩田日料店包间已订好，6点半见！ 赵小美",
    "shoot_mode": "正常拍照",
    "image_size": "4032×3024"
  },
  {
    "event_id": "617",
    "type": "photo",
    "caption": "新款服装到货清单在仓库货架前拍摄，孙老板正在清点货物",
    "title": "IMG_20250112_074900",
    "datetime": "2025-01-12 07:49:00",
    "location": {
      "province": "上海市",
      "city": "上海市",
      "district": "浦东新区",
      "streetName": "张杨路",
      "streetNumber": "123号",
      "poi": "明方服饰仓库"
    },
    "faceRecognition": [
      "孙老板"
    ],
    "imageTag": [
      "服装仓库",
      "货架",
      "到货清单",
      "孙老板",
      "清点货物",
      "新款服饰",
      "工作场景"
    ],
    "ocrText": "明方服饰2025春季新款到货清单 - 到货时间：2025-01-13 上午 - 总计：120件",
    "shoot_mode": "正常拍照",
    "image_size": "4032×3024"
  },
  {
    "event_id": "616",
    "type": "photo",
    "caption": "世纪大道培训室投影设备调试完成，陈丽正在检查设备连接",
    "title": "IMG_20250112_073500",
    "datetime": "2025-01-12 07:35:00",
    "location": {
      "province": "上海市",
      "city": "上海市",
      "district": "浦东新区",
      "streetName": "世纪大道",
      "streetNumber": "88号",
      "poi": "世纪大道培训室"
    },
    "faceRecognition": [
      "陈丽"
    ],
    "imageTag": [
      "培训室",
      "投影设备",
      "设备调试",
      "陈丽",
      "工作准备",
      "周一培训",
      "会议室"
    ],
    "ocrText": "销售培训场地确认 - 时间：2025-01-15 周一 - 地点：世纪大道培训室 - 设备：投影仪已检查",
    "shoot_mode": "正常拍照",
    "image_size": "3024×4032"
  },
  {
    "event_id": "626",
    "type": "photo",
    "caption": "岩田日料店精致的刺身拼盘摆放在木质餐桌上，配以日式餐具",
    "title": "IMG_20250112_140800",
    "datetime": "2025-01-12 14:08:00",
    "location": {
      "province": "上海市",
      "city": "上海市",
      "district": "黄浦区",
      "streetName": "南京东路",
      "streetNumber": "XX号",
      "poi": "岩田日料店"
    },
    "faceRecognition": [
      "无"
    ],
    "imageTag": [
      "日料",
      "刺身拼盘",
      "三文鱼",
      "金枪鱼",
      "甜虾",
      "日式餐具",
      "美食摄影"
    ],
    "ocrText": "岩田日料 - 人均消费：300元 - 营业时间：11:00-22:00",
    "shoot_mode": "微距",
    "image_size": "4032×3024"
  },
  {
    "event_id": "626",
    "type": "photo",
    "caption": "徐静与闺蜜们在岩田日料店包间内合影，背景是日式装饰风格",
    "title": "IMG_20250112_141500",
    "datetime": "2025-01-12 14:15:00",
    "location": {
      "province": "上海市",
      "city": "上海市",
      "district": "黄浦区",
      "streetName": "南京东路",
      "streetNumber": "XX号",
      "poi": "岩田日料店"
    },
    "faceRecognition": [
      "徐静",
      "王丽",
      "张婷"
    ],
    "imageTag": [
      "闺蜜聚会",
      "日料店",
      "合影",
      "包间",
      "日式装饰",
      "笑容",
      "朋友聚会"
    ],
    "ocrText": "无",
    "shoot_mode": "人像",
    "image_size": "3024×4032"
  },
  {
    "event_id": "627",
    "type": "photo",
    "caption": "2024年熊猫纪念币在黑色绒布上展示，金币光泽清晰可见",
    "title": "IMG_20250112_145000",
    "datetime": "2025-01-12 14:50:00",
    "location": {
      "province": "上海市",
      "city": "上海市",
      "district": "浦东新区",
      "streetName": "张杨路",
      "streetNumber": "123号",
      "poi": "徐静家中"
    },
    "faceRecognition": [
      "无"
    ],
    "imageTag": [
      "熊猫纪念币",
      "金币",
      "2024年",
      "收藏品",
      "钱币",
      "保值投资",
      "微距拍摄"
    ],
    "ocrText": "2024版熊猫金币 - 发行年份：2024 - 材质：999纯金 - 面值：100元",
    "shoot_mode": "微距",
    "image_size": "4032×3024"
  },
  {
    "event_id": "628",
    "type": "photo",
    "caption": "普拉提课程预约确认短信截图，显示课程时间与教练信息",
    "title": "IMG_20250112_153800",
    "datetime": "2025-01-12 15:38:00",
    "location": {
      "province": "上海市",
      "city": "上海市",
      "district": "徐汇区",
      "streetName": "淮海中路",
      "streetNumber": "XX号",
      "poi": "静心瑜伽馆"
    },
    "faceRecognition": [
      "无"
    ],
    "imageTag": [
      "普拉提课程",
      "预约确认",
      "短信截图",
      "课程时间",
      "瑜伽馆",
      "健身安排"
    ],
    "ocrText": "静心瑜伽馆普拉提课程预约成功 - 时间：2025-01-17 19:00 - 教练：周晓雯 - 费用：150元/节",
    "shoot_mode": "正常拍照",
    "image_size": "3024×4032"
  },
  {
    "event_id": "636",
    "type": "photo",
    "caption": "陈丽在服装店培训室调试投影仪，设备运行正常，背景为培训室白板",
    "title": "IMG_20250113_073500",
    "datetime": "2025-01-13 07:35:00",
    "location": {
      "province": "上海市",
      "city": "上海市",
      "district": "浦东新区",
      "streetName": "世纪大道",
      "streetNumber": "88号",
      "poi": "服装店培训室"
    },
    "faceRecognition": [
      "陈丽"
    ],
    "imageTag": [
      "投影仪",
      "培训室",
      "白板",
      "设备调试",
      "工作场景",
      "会议设备"
    ],
    "ocrText": "投影仪调试完成 - 设备正常",
    "shoot_mode": "正常拍照",
    "image_size": "4032×3024"
  },
  {
    "event_id": "636",
    "type": "photo",
    "caption": "针织衫补货清单放在服装店收银台，清单上标注下午3点前完成补货",
    "title": "IMG_20250113_073200",
    "datetime": "2025-01-13 07:32:00",
    "location": {
      "province": "上海市",
      "city": "上海市",
      "district": "浦东新区",
      "streetName": "世纪大道",
      "streetNumber": "88号",
      "poi": "服装店收银台"
    },
    "faceRecognition": [
      "无"
    ],
    "imageTag": [
      "针织衫",
      "补货清单",
      "收银台",
      "手写备注",
      "工作记录",
      "货品管理"
    ],
    "ocrText": "针织衫补货 - 今日15:00前完成 - 孙总确认",
    "shoot_mode": "正常拍照",
    "image_size": "3024×4032"
  },
  {
    "event_id": "639",
    "type": "photo",
    "caption": "刘伟在办公室查看培训方案，桌上放着跨部门协作时间表",
    "title": "IMG_20250113_112900",
    "datetime": "2025-01-13 11:29:00",
    "location": {
      "province": "上海市",
      "city": "上海市",
      "district": "浦东新区",
      "streetName": "世纪大道",
      "streetNumber": "88号",
      "poi": "服装店办公室"
    },
    "faceRecognition": [
      "刘伟"
    ],
    "imageTag": [
      "培训方案",
      "时间表",
      "办公桌",
      "文件翻阅",
      "工作讨论",
      "协作计划"
    ],
    "ocrText": "跨部门培训协作 - 时间确认表 - 参与时段：9:00-12:00",
    "shoot_mode": "正常拍照",
    "image_size": "4032×3024"
  },
  {
    "event_id": "640",
    "type": "photo",
    "caption": "日料店预订确认短信截图，显示明晚6点用餐信息",
    "title": "IMG_20250113_124500",
    "datetime": "2025-01-13 12:45:00",
    "location": {
      "province": "上海市",
      "city": "上海市",
      "district": "浦东新区",
      "streetName": "张杨路",
      "streetNumber": "123号",
      "poi": "家中客厅"
    },
    "faceRecognition": [
      "无"
    ],
    "imageTag": [
      "手机截图",
      "日料预订",
      "短信界面",
      "用餐时间",
      "餐厅信息",
      "屏幕显示"
    ],
    "ocrText": "日料店预订 - 时间：明晚18:00 - 地址：浦东新区陆家嘴环路123号",
    "shoot_mode": "正常拍照",
    "image_size": "3024×4032"
  },
  {
    "event_id": "646",
    "type": "photo",
    "caption": "李芳在厨房准备晚餐，桌上放着新鲜的草莓和香蕉",
    "title": "IMG_20250113_164200",
    "datetime": "2025-01-13 16:42:00",
    "location": {
      "province": "上海市",
      "city": "上海市",
      "district": "浦东新区",
      "streetName": "张杨路",
      "streetNumber": "123号",
      "poi": "家中厨房"
    },
    "faceRecognition": [
      "李芳"
    ],
    "imageTag": [
      "草莓",
      "香蕉",
      "水果篮",
      "厨房台面",
      "晚餐准备",
      "新鲜食材"
    ],
    "ocrText": "无",
    "shoot_mode": "微距",
    "image_size": "4032×3024"
  },
  {
    "event_id": "648",
    "type": "photo",
    "caption": "体检用品整齐摆放在玄关，包括身份证、医保卡和水杯",
    "title": "IMG_20250113_182500",
    "datetime": "2025-01-13 18:25:00",
    "location": {
      "province": "上海市",
      "city": "上海市",
      "district": "浦东新区",
      "streetName": "张杨路",
      "streetNumber": "123号",
      "poi": "家中玄关"
    },
    "faceRecognition": [
      "无"
    ],
    "imageTag": [
      "体检用品",
      "身份证",
      "医保卡",
      "水杯",
      "物品收纳",
      "明日准备"
    ],
    "ocrText": "无",
    "shoot_mode": "正常拍照",
    "image_size": "3024×4032"
  },
  {
    "event_id": "659_related_1",
    "type": "photo",
    "caption": "徐静与王丽在外滩法餐厅享用精致法餐，桌上有红酒和牛排，窗外是外滩夜景",
    "title": "IMG_20250114_185530",
    "datetime": "2025-01-14 18:55:30",
    "location": {
      "province": "上海市",
      "city": "上海市",
      "district": "黄浦区",
      "streetName": "中山东一路",
      "streetNumber": "XX号",
      "poi": "外滩法餐厅"
    },
    "faceRecognition": [
      "徐静",
      "王丽"
    ],
    "imageTag": [
      "法餐",
      "牛排",
      "红酒",
      "外滩夜景",
      "餐厅环境",
      "美食摄影",
      "烛光晚餐",
      "闺蜜聚餐"
    ],
    "ocrText": "外滩法餐厅 - 营业时间：11:00-22:00 - 人均消费：¥380",
    "shoot_mode": "正常拍照",
    "image_size": "4032×3024"
  },
  {
    "event_id": "659_related_1",
    "type": "photo",
    "caption": "徐静拍摄的法式甜点特写，草莓慕斯蛋糕装饰精美，搭配抹茶拿铁",
    "title": "IMG_20250114_190215",
    "datetime": "2025-01-14 19:02:15",
    "location": {
      "province": "上海市",
      "city": "上海市",
      "district": "黄浦区",
      "streetName": "中山东一路",
      "streetNumber": "XX号",
      "poi": "外滩法餐厅"
    },
    "faceRecognition": [
      "无"
    ],
    "imageTag": [
      "草莓慕斯",
      "法式甜点",
      "抹茶拿铁",
      "甜品特写",
      "美食摄影",
      "精致摆盘"
    ],
    "ocrText": "无",
    "shoot_mode": "微距",
    "image_size": "3024×4032"
  },
  {
    "event_id": "663_related_1",
    "type": "photo",
    "caption": "徐静在办公桌上拍摄熊猫纪念币特写，硬币品相完好，背景是工作文件",
    "title": "IMG_20250114_112530",
    "datetime": "2025-01-14 11:25:30",
    "location": {
      "province": "上海市",
      "city": "上海市",
      "district": "浦东新区",
      "streetName": "世纪大道",
      "streetNumber": "88号",
      "poi": "服装零售店办公室"
    },
    "faceRecognition": [
      "无"
    ],
    "imageTag": [
      "熊猫纪念币",
      "硬币收藏",
      "金属光泽",
      "特写拍摄",
      "收藏品",
      "钱币摄影"
    ],
    "ocrText": "2024版熊猫纪念金币 - 面值：100元 - 含金量：1/10盎司",
    "shoot_mode": "微距",
    "image_size": "4032×3024"
  },
  {
    "event_id": "663_related_1",
    "type": "photo",
    "caption": "徐静整理纪念币收藏册，展示多枚熊猫币排列整齐",
    "title": "IMG_20250114_112645",
    "datetime": "2025-01-14 11:26:45",
    "location": {
      "province": "上海市",
      "city": "上海市",
      "district": "浦东新区",
      "streetName": "世纪大道",
      "streetNumber": "88号",
      "poi": "服装零售店办公室"
    },
    "faceRecognition": [
      "无"
    ],
    "imageTag": [
      "纪念币收藏册",
      "熊猫币系列",
      "物品收纳",
      "收藏整理",
      "钱币展示"
    ],
    "ocrText": "无",
    "shoot_mode": "正常拍照",
    "image_size": "3024×4032"
  },
  {
    "event_id": "668",
    "type": "photo",
    "caption": "徐静扫描培训材料电子版，文档平铺在办公桌上",
    "title": "IMG_20250114_153500",
    "datetime": "2025-01-14 15:35:00",
    "location": {
      "province": "上海市",
      "city": "上海市",
      "district": "浦东新区",
      "streetName": "世纪大道",
      "streetNumber": "88号",
      "poi": "服装零售店办公室"
    },
    "faceRecognition": [
      "无"
    ],
    "imageTag": [
      "培训材料",
      "文档扫描",
      "办公桌",
      "文件整理",
      "工作资料"
    ],
    "ocrText": "2025年春季销售培训手册 - 版本：V2.1 - 发布日期：2025-01-10",
    "shoot_mode": "正常拍照",
    "image_size": "3024×4032"
  },
  {
    "event_id": "668",
    "type": "photo",
    "caption": "徐静拍摄更新后的培训材料封面，彩色打印效果清晰",
    "title": "IMG_20250114_153615",
    "datetime": "2025-01-14 15:36:15",
    "location": {
      "province": "上海市",
      "city": "上海市",
      "district": "浦东新区",
      "streetName": "世纪大道",
      "streetNumber": "88号",
      "poi": "服装零售店办公室"
    },
    "faceRecognition": [
      "无"
    ],
    "imageTag": [
      "培训手册",
      "彩色封面",
      "办公文档",
      "材料更新",
      "工作准备"
    ],
    "ocrText": "销售技巧提升培训 - 服装零售行业 - 主讲：刘伟",
    "shoot_mode": "正常拍照",
    "image_size": "4032×3024"
  },
  {
    "event_id": "683",
    "type": "photo",
    "caption": "王丽在南京路步行街餐厅享用精致晚餐，桌上有特色菜肴和饮品",
    "title": "IMG_20250115_191200",
    "datetime": "2025-01-15 19:12:00",
    "location": {
      "province": "上海市",
      "city": "上海市",
      "district": "黄浦区",
      "streetName": "南京东路",
      "streetNumber": "XX号",
      "poi": "南京路步行街"
    },
    "faceRecognition": [
      "王丽",
      "张婷"
    ],
    "imageTag": [
      "闺蜜聚餐",
      "特色菜肴",
      "精致摆盘",
      "餐厅环境",
      "美食记录",
      "晚餐时光"
    ],
    "ocrText": "无",
    "shoot_mode": "正常拍照",
    "image_size": "4032×3024"
  },
  {
    "event_id": "683",
    "type": "photo",
    "caption": "张婷举杯庆祝聚餐，背景是餐厅温馨的装饰和灯光",
    "title": "IMG_20250115_191500",
    "datetime": "2025-01-15 19:15:00",
    "location": {
      "province": "上海市",
      "city": "上海市",
      "district": "黄浦区",
      "streetName": "南京东路",
      "streetNumber": "XX号",
      "poi": "南京路步行街"
    },
    "faceRecognition": [
      "张婷",
      "王丽"
    ],
    "imageTag": [
      "举杯庆祝",
      "闺蜜合影",
      "餐厅灯光",
      "温馨氛围",
      "聚会记录"
    ],
    "ocrText": "无",
    "shoot_mode": "人像",
    "image_size": "3024×4032"
  },
  {
    "event_id": "683",
    "type": "photo",
    "caption": "特色甜点草莓蛋糕摆放在餐桌中央，周围有餐具和饮品",
    "title": "IMG_20250115_191800",
    "datetime": "2025-01-15 19:18:00",
    "location": {
      "province": "上海市",
      "city": "上海市",
      "district": "黄浦区",
      "streetName": "南京东路",
      "streetNumber": "XX号",
      "poi": "南京路步行街"
    },
    "faceRecognition": [
      "无"
    ],
    "imageTag": [
      "草莓蛋糕",
      "甜点特写",
      "美食摄影",
      "餐具布置",
      "餐厅美食"
    ],
    "ocrText": "无",
    "shoot_mode": "微距",
    "image_size": "4032×3024"
  },
  {
    "event_id": "695",
    "type": "photo",
    "caption": "闺蜜们在餐厅门口合影留念，身后是繁华的南京路夜景",
    "title": "IMG_20250115_212000",
    "datetime": "2025-01-15 21:20:00",
    "location": {
      "province": "上海市",
      "city": "上海市",
      "district": "黄浦区",
      "streetName": "南京东路",
      "streetNumber": "XX号",
      "poi": "南京路步行街"
    },
    "faceRecognition": [
      "王丽",
      "张婷",
      "赵小美"
    ],
    "imageTag": [
      "闺蜜合影",
      "夜景人像",
      "南京路步行街",
      "餐厅门口",
      "聚会留念"
    ],
    "ocrText": "无",
    "shoot_mode": "夜景",
    "image_size": "4032×3024"
  },
  {
    "event_id": "695",
    "type": "photo",
    "caption": "餐厅菜单特写，展示特色菜品和价格信息",
    "title": "IMG_20250115_212300",
    "datetime": "2025-01-15 21:23:00",
    "location": {
      "province": "上海市",
      "city": "上海市",
      "district": "黄浦区",
      "streetName": "南京东路",
      "streetNumber": "XX号",
      "poi": "南京路步行街"
    },
    "faceRecognition": [
      "无"
    ],
    "imageTag": [
      "餐厅菜单",
      "菜品介绍",
      "价格信息",
      "文档扫描",
      "美食记录"
    ],
    "ocrText": "特色小笼包 58元\n招牌红烧肉 88元\n时令蔬菜 38元\n草莓蛋糕 42元\n南京路餐厅 2025年1月",
    "shoot_mode": "正常拍照",
    "image_size": "3024×4032"
  },
  {
    "event_id": "700_related_1",
    "type": "photo",
    "caption": "陈丽在门店VIP区域整理客户需求记录，背景是服装展示架和收银台",
    "title": "IMG_20250116_073500",
    "datetime": "2025-01-16 07:35:00",
    "location": {
      "province": "上海市",
      "city": "上海市",
      "district": "浦东新区",
      "streetName": "世纪大道",
      "streetNumber": "88号",
      "poi": "明方服饰旗舰店"
    },
    "faceRecognition": [
      "陈丽"
    ],
    "imageTag": [
      "VIP客户",
      "需求记录",
      "服装展示架",
      "收银台",
      "工作笔记",
      "门店环境",
      "销售主管",
      "晨间工作"
    ],
    "ocrText": "VIP客户需求记录 - 2025年1月16日 07:35",
    "shoot_mode": "正常拍照",
    "image_size": "4032×3024"
  },
  {
    "event_id": "700_related_1",
    "type": "photo",
    "caption": "门店排班表调整通知在电脑屏幕上显示，包含陈丽的班次安排",
    "title": "IMG_20250116_073520",
    "datetime": "2025-01-16 07:35:20",
    "location": {
      "province": "上海市",
      "city": "上海市",
      "district": "浦东新区",
      "streetName": "世纪大道",
      "streetNumber": "88号",
      "poi": "明方服饰旗舰店"
    },
    "faceRecognition": [
      "无"
    ],
    "imageTag": [
      "排班表",
      "电脑屏幕",
      "班次安排",
      "工作管理",
      "Excel表格",
      "门店运营",
      "时间安排"
    ],
    "ocrText": "门店排班表 2025年1月17日 陈丽 早班 09:00-17:00",
    "shoot_mode": "正常拍照",
    "image_size": "3024×4032"
  },
  {
    "event_id": "705_related_1",
    "type": "photo",
    "caption": "三款新品面料样品在办公桌上整齐摆放，旁边是参数记录本",
    "title": "IMG_20250116_131200",
    "datetime": "2025-01-16 13:12:00",
    "location": {
      "province": "上海市",
      "city": "上海市",
      "district": "浦东新区",
      "streetName": "世纪大道",
      "streetNumber": "88号",
      "poi": "明方服饰旗舰店"
    },
    "faceRecognition": [
      "无"
    ],
    "imageTag": [
      "面料样品",
      "参数记录",
      "办公桌",
      "新品开发",
      "纺织面料",
      "颜色样本",
      "材质标签"
    ],
    "ocrText": "新品面料参数：1.纯棉斜纹 2.天丝混纺 3.涤纶针织 厚度：0.8mm/1.2mm/1.5mm",
    "shoot_mode": "微距",
    "image_size": "4032×3024"
  },
  {
    "event_id": "705_related_1",
    "type": "photo",
    "caption": "面料参数Excel表格在笔记本电脑屏幕上显示，包含详细技术指标",
    "title": "IMG_20250116_131230",
    "datetime": "2025-01-16 13:12:30",
    "location": {
      "province": "上海市",
      "city": "上海市",
      "district": "浦东新区",
      "streetName": "世纪大道",
      "streetNumber": "88号",
      "poi": "明方服饰旗舰店"
    },
    "faceRecognition": [
      "无"
    ],
    "imageTag": [
      "Excel表格",
      "面料参数",
      "技术指标",
      "笔记本电脑",
      "数据整理",
      "供应商资料"
    ],
    "ocrText": "孙老板面料参数表 - 克重：180g/m² 成分：100%棉 价格：45元/米",
    "shoot_mode": "正常拍照",
    "image_size": "3024×4032"
  },
  {
    "event_id": "711",
    "type": "photo",
    "caption": "会员管理系统优化建议手写笔记，放在家庭书房桌面上",
    "title": "IMG_20250116_182600",
    "datetime": "2025-01-16 18:26:00",
    "location": {
      "province": "上海市",
      "city": "上海市",
      "district": "浦东新区",
      "streetName": "张杨路",
      "streetNumber": "123号",
      "poi": "徐静家"
    },
    "faceRecognition": [
      "无"
    ],
    "imageTag": [
      "会员管理",
      "优化建议",
      "手写笔记",
      "书房桌面",
      "工作规划",
      "实施计划",
      "老爸建议"
    ],
    "ocrText": "会员系统优化：1.积分兑换升级 2.生日特权增加 3.推荐奖励机制 实施时间：2025年1月17日",
    "shoot_mode": "正常拍照",
    "image_size": "4032×3024"
  },
  {
    "event_id": "711",
    "type": "photo",
    "caption": "草莓蛋糕和抹茶拿铁作为晚间甜点，放在客厅茶几上",
    "title": "IMG_20250116_182800",
    "datetime": "2025-01-16 18:28:00",
    "location": {
      "province": "上海市",
      "city": "上海市",
      "district": "浦东新区",
      "streetName": "张杨路",
      "streetNumber": "123号",
      "poi": "徐静家"
    },
    "faceRecognition": [
      "无"
    ],
    "imageTag": [
      "草莓蛋糕",
      "抹茶拿铁",
      "晚间甜点",
      "客厅茶几",
      "美食记录",
      "放松时刻",
      "家庭生活"
    ],
    "ocrText": "无",
    "shoot_mode": "正常拍照",
    "image_size": "3024×4032"
  },
  {
    "event_id": "721_related_1",
    "type": "photo",
    "caption": "陈丽在会议室白板前讲解培训安排，白板上写有反馈表填写说明",
    "title": "IMG_20250117_090500",
    "datetime": "2025-01-17 09:05:00",
    "location": {
      "province": "上海市",
      "city": "上海市",
      "district": "浦东新区",
      "streetName": "世纪大道",
      "streetNumber": "88号",
      "poi": "时尚服饰零售企业"
    },
    "faceRecognition": [
      "陈丽"
    ],
    "imageTag": [
      "会议室",
      "白板",
      "培训安排",
      "反馈表",
      "工作笔记",
      "同事",
      "讲解"
    ],
    "ocrText": "培训安排：9:00-12:00 客户服务培训 反馈表填写说明",
    "shoot_mode": "正常拍照",
    "image_size": "4032×3024"
  },
  {
    "event_id": "721_related_1",
    "type": "photo",
    "caption": "培训PPT投影在屏幕上，显示客户服务流程图表",
    "title": "IMG_20250117_091200",
    "datetime": "2025-01-17 09:12:00",
    "location": {
      "province": "上海市",
      "city": "上海市",
      "district": "浦东新区",
      "streetName": "世纪大道",
      "streetNumber": "88号",
      "poi": "时尚服饰零售企业"
    },
    "faceRecognition": [
      "无"
    ],
    "imageTag": [
      "PPT",
      "投影",
      "客户服务",
      "流程图",
      "培训材料",
      "屏幕"
    ],
    "ocrText": "客户服务流程：接待-需求分析-产品推荐-售后跟进",
    "shoot_mode": "正常拍照",
    "image_size": "4032×3024"
  },
  {
    "event_id": "725",
    "type": "photo",
    "caption": "VIP客户特殊尺码需求记录表放在办公桌上",
    "title": "IMG_20250117_144500",
    "datetime": "2025-01-17 14:45:00",
    "location": {
      "province": "上海市",
      "city": "上海市",
      "district": "浦东新区",
      "streetName": "世纪大道",
      "streetNumber": "88号",
      "poi": "时尚服饰零售企业"
    },
    "faceRecognition": [
      "无"
    ],
    "imageTag": [
      "记录表",
      "尺码需求",
      "VIP客户",
      "办公桌",
      "笔",
      "文档"
    ],
    "ocrText": "VIP客户特殊尺码需求表 尺码：XL 颜色：深蓝 数量：2",
    "shoot_mode": "文档扫描",
    "image_size": "3024×4032"
  },
  {
    "event_id": "727",
    "type": "photo",
    "caption": "李芳做的上海小笼包放在餐桌上，冒着热气",
    "title": "IMG_20250117_123000",
    "datetime": "2025-01-17 12:30:00",
    "location": {
      "province": "上海市",
      "city": "上海市",
      "district": "浦东新区",
      "streetName": "张杨路",
      "streetNumber": "123号",
      "poi": "徐静家"
    },
    "faceRecognition": [
      "李芳"
    ],
    "imageTag": [
      "上海小笼包",
      "蒸笼",
      "热气",
      "午餐",
      "家庭美食",
      "餐桌"
    ],
    "ocrText": "无",
    "shoot_mode": "微距",
    "image_size": "4032×3024"
  },
  {
    "event_id": "737_related_1",
    "type": "photo",
    "caption": "纪念币放在黑色绒布上，旁边有放大镜和鉴定证书",
    "title": "IMG_20250117_194500",
    "datetime": "2025-01-17 19:45:00",
    "location": {
      "province": "上海市",
      "city": "上海市",
      "district": "浦东新区",
      "streetName": "张杨路",
      "streetNumber": "123号",
      "poi": "徐静家"
    },
    "faceRecognition": [
      "张婷"
    ],
    "imageTag": [
      "纪念币",
      "收藏品",
      "放大镜",
      "绒布",
      "鉴定",
      "钱币"
    ],
    "ocrText": "中华人民共和国成立70周年纪念币 面值：10元 发行量：10000枚",
    "shoot_mode": "微距",
    "image_size": "4032×3024"
  },
  {
    "event_id": "737_related_1",
    "type": "photo",
    "caption": "张婷拿着纪念币在灯光下仔细查看品相",
    "title": "IMG_20250117_194800",
    "datetime": "2025-01-17 19:48:00",
    "location": {
      "province": "上海市",
      "city": "上海市",
      "district": "浦东新区",
      "streetName": "张杨路",
      "streetNumber": "123号",
      "poi": "徐静家"
    },
    "faceRecognition": [
      "张婷"
    ],
    "imageTag": [
      "纪念币",
      "查看",
      "灯光",
      "闺蜜",
      "收藏",
      "钱币"
    ],
    "ocrText": "无",
    "shoot_mode": "人像",
    "image_size": "3024×4032"
  },
  {
    "event_id": "743_related_1",
    "type": "photo",
    "caption": "徐静和陈丽在年货市场采购传统糕点，摊位挂满红色灯笼装饰",
    "title": "IMG_20250118_143025",
    "datetime": "2025-01-18 14:30:25",
    "location": {
      "province": "上海市",
      "city": "上海市",
      "district": "浦东新区",
      "streetName": "张杨路",
      "streetNumber": "XX号",
      "poi": "第一八佰伴年货集市"
    },
    "faceRecognition": [
      "徐静",
      "陈丽"
    ],
    "imageTag": [
      "年货市场",
      "传统糕点",
      "红色灯笼",
      "春节装饰",
      "采购",
      "糖果摊位",
      "节日氛围"
    ],
    "ocrText": "老字号糕点 - 上海特产 售价38元/盒",
    "shoot_mode": "人像",
    "image_size": "4032×3024"
  },
  {
    "event_id": "743_related_1",
    "type": "photo",
    "caption": "徐静拍摄年货市场的干果摊位，各种坚果蜜饯整齐陈列",
    "title": "IMG_20250118_143145",
    "datetime": "2025-01-18 14:31:45",
    "location": {
      "province": "上海市",
      "city": "上海市",
      "district": "浦东新区",
      "streetName": "张杨路",
      "streetNumber": "XX号",
      "poi": "第一八佰伴年货集市"
    },
    "faceRecognition": [
      "无"
    ],
    "imageTag": [
      "干果摊位",
      "坚果",
      "蜜饯",
      "春节年货",
      "商品陈列",
      "红色包装",
      "市场氛围"
    ],
    "ocrText": "新疆核桃 特价25元/斤 开心果45元/斤",
    "shoot_mode": "正常拍照",
    "image_size": "3024×4032"
  },
  {
    "event_id": "750",
    "type": "photo",
    "caption": "徐静在收藏室拍摄纪念币特写，木质展示盒中排列整齐",
    "title": "IMG_20250118_110525",
    "datetime": "2025-01-18 11:05:25",
    "location": {
      "province": "上海市",
      "city": "上海市",
      "district": "浦东新区",
      "streetName": "张杨路",
      "streetNumber": "123号",
      "poi": "徐静家中收藏室"
    },
    "faceRecognition": [
      "无"
    ],
    "imageTag": [
      "纪念币",
      "收藏",
      "特写",
      "木质展示盒",
      "金属光泽",
      "编号",
      "钱币"
    ],
    "ocrText": "2024生肖纪念币 发行量10000枚 面值10元",
    "shoot_mode": "微距",
    "image_size": "4032×3024"
  },
  {
    "event_id": "750",
    "type": "photo",
    "caption": "徐静拍摄纪念币鉴定证书，包含详细规格和防伪标识",
    "title": "IMG_20250118_110645",
    "datetime": "2025-01-18 11:06:45",
    "location": {
      "province": "上海市",
      "city": "上海市",
      "district": "浦东新区",
      "streetName": "张杨路",
      "streetNumber": "123号",
      "poi": "徐静家中收藏室"
    },
    "faceRecognition": [
      "无"
    ],
    "imageTag": [
      "鉴定证书",
      "纪念币",
      "防伪标识",
      "规格说明",
      "纸质文档",
      "收藏证明"
    ],
    "ocrText": "中国金币总公司 成色99.9% 重量30g 发行日期2024-01-01",
    "shoot_mode": "正常拍照",
    "image_size": "3024×4032"
  },
  {
    "event_id": "754_related_1",
    "type": "photo",
    "caption": "徐静拍摄整理好的纪念币资料文件夹，包含分类标签和笔记",
    "title": "IMG_20250118_152025",
    "datetime": "2025-01-18 15:20:25",
    "location": {
      "province": "上海市",
      "city": "上海市",
      "district": "浦东新区",
      "streetName": "张杨路",
      "streetNumber": "123号",
      "poi": "徐静家中书房"
    },
    "faceRecognition": [
      "无"
    ],
    "imageTag": [
      "资料文件夹",
      "纪念币",
      "分类标签",
      "手写笔记",
      "文档整理",
      "书架背景"
    ],
    "ocrText": "生肖系列纪念币资料 1984-2024 收藏价值分析",
    "shoot_mode": "正常拍照",
    "image_size": "4032×3024"
  },
  {
    "event_id": "760",
    "type": "photo",
    "caption": "徐静在家拍摄今日采购的抹茶拿铁和草莓蛋糕下午茶",
    "title": "IMG_20250118_163025",
    "datetime": "2025-01-18 16:30:25",
    "location": {
      "province": "上海市",
      "city": "上海市",
      "district": "浦东新区",
      "streetName": "张杨路",
      "streetNumber": "123号",
      "poi": "徐静家中客厅"
    },
    "faceRecognition": [
      "无"
    ],
    "imageTag": [
      "抹茶拿铁",
      "草莓蛋糕",
      "下午茶",
      "陶瓷杯",
      "木质餐桌",
      "甜点",
      "奶油装饰"
    ],
    "ocrText": "星巴克抹茶拿铁 大杯 售价35元",
    "shoot_mode": "正常拍照",
    "image_size": "3024×4032"
  },
  {
    "event_id": "771_related_1",
    "type": "photo",
    "caption": "徐静在星巴克门店拍摄抹茶拿铁和蓝莓麦芬，餐桌上摆放着取餐码A256",
    "title": "IMG_20250119_145300",
    "datetime": "2025-01-19 14:53:00",
    "location": {
      "province": "上海市",
      "city": "上海市",
      "district": "浦东新区",
      "streetName": "世纪大道",
      "streetNumber": "88号",
      "poi": "星巴克世纪大道店"
    },
    "faceRecognition": [
      "无"
    ],
    "imageTag": [
      "抹茶拿铁",
      "蓝莓麦芬",
      "星巴克",
      "咖啡杯",
      "甜点",
      "取餐码",
      "木质餐桌",
      "下午茶",
      "饮品",
      "糕点"
    ],
    "ocrText": "星巴克 取餐码：A256 抹茶拿铁大杯 蓝莓麦芬",
    "shoot_mode": "正常拍照",
    "image_size": "4032×3024"
  },
  {
    "event_id": "773_related_1",
    "type": "photo",
    "caption": "徐静在家中书桌上拍摄纪念币收藏，旁边放着王丽发来的纪念币资料",
    "title": "IMG_20250119_143000",
    "datetime": "2025-01-19 14:30:00",
    "location": {
      "province": "上海市",
      "city": "上海市",
      "district": "浦东新区",
      "streetName": "张杨路",
      "streetNumber": "123号",
      "poi": "徐静家"
    },
    "faceRecognition": [
      "无"
    ],
    "imageTag": [
      "纪念币",
      "收藏品",
      "金属质感",
      "钱币",
      "放大镜",
      "资料册",
      "书桌",
      "特写",
      "微距",
      "古钱币"
    ],
    "ocrText": "2025生肖纪念币 发行时间：2025年1月 发行价：100元",
    "shoot_mode": "微距",
    "image_size": "3024×4032"
  },
  {
    "event_id": "778_related_1",
    "type": "photo",
    "caption": "徐静在培训场地拍摄会议白板上的日程安排，陈丽正在旁边确认细节",
    "title": "IMG_20250119_201400",
    "datetime": "2025-01-19 20:14:00",
    "location": {
      "province": "上海市",
      "city": "上海市",
      "district": "浦东新区",
      "streetName": "世纪大道",
      "streetNumber": "88号",
      "poi": "明方服饰培训室"
    },
    "faceRecognition": [
      "陈丽",
      "徐静"
    ],
    "imageTag": [
      "培训场地",
      "白板",
      "日程安排",
      "会议纪要",
      "马克笔",
      "投影仪",
      "会议室",
      "工作安排",
      "团队会议"
    ],
    "ocrText": "晨会培训安排 时间：2025-01-20 09:00 地点：总部培训室 主讲：陈丽",
    "shoot_mode": "正常拍照",
    "image_size": "4032×3024"
  },
  {
    "event_id": "778_related_1",
    "type": "photo",
    "caption": "徐静拍摄培训室全景，包括座椅摆放和投影设备布置",
    "title": "IMG_20250119_201500",
    "datetime": "2025-01-19 20:15:00",
    "location": {
      "province": "上海市",
      "city": "上海市",
      "district": "浦东新区",
      "streetName": "世纪大道",
      "streetNumber": "88号",
      "poi": "明方服饰培训室"
    },
    "faceRecognition": [
      "陈丽"
    ],
    "imageTag": [
      "培训室",
      "座椅排列",
      "投影仪",
      "会议室",
      "环境布置",
      "工作场所",
      "团队培训",
      "室内环境"
    ],
    "ocrText": "明方服饰培训室 可容纳30人 设备：投影仪+音响系统",
    "shoot_mode": "正常拍照",
    "image_size": "4032×3024"
  },
  {
    "event_id": "787",
    "type": "photo",
    "caption": "周庄古镇入口处拍摄古镇导览图，包含景点分布和游览路线",
    "title": "IMG_20250125_103025",
    "datetime": "2025-01-25 10:30:25",
    "location": {
      "province": "江苏省",
      "city": "苏州市",
      "district": "昆山市",
      "streetName": "全福路",
      "streetNumber": "XX号",
      "poi": "周庄古镇景区"
    },
    "faceRecognition": "无",
    "imageTag": [
      "周庄古镇",
      "导览图",
      "景点分布",
      "游览路线",
      "景区入口",
      "指示牌",
      "手绘地图"
    ],
    "ocrText": "周庄古镇 - 中国第一水乡 开放时间：8:00-17:00 门票价格：100元",
    "shoot_mode": "正常拍照",
    "image_size": "4032×3024"
  },
  {
    "event_id": "787",
    "type": "photo",
    "caption": "周庄古镇临水民宿的独立院子，青石板路和传统建筑风格",
    "title": "IMG_20250125_143015",
    "datetime": "2025-01-25 14:30:15",
    "location": {
      "province": "江苏省",
      "city": "苏州市",
      "district": "昆山市",
      "streetName": "全福路",
      "streetNumber": "XX号",
      "poi": "周庄古镇临水民宿"
    },
    "faceRecognition": "无",
    "imageTag": [
      "周庄民宿",
      "独立院子",
      "青石板路",
      "传统建筑",
      "木质门窗",
      "临水景观",
      "古镇风情"
    ],
    "ocrText": "周庄临水民宿 - 带独立院子 入住日期：1月25日 订单金额：568元",
    "shoot_mode": "正常拍照",
    "image_size": "3024×4032"
  },
  {
    "event_id": "788",
    "type": "photo",
    "caption": "本帮菜餐厅包间内精致的素食菜品，清淡口味摆盘精美",
    "title": "IMG_20250125_183045",
    "datetime": "2025-01-25 18:30:45",
    "location": {
      "province": "上海市",
      "city": "上海市",
      "district": "浦东新区",
      "streetName": "张杨路",
      "streetNumber": "XX号",
      "poi": "本帮菜餐厅"
    },
    "faceRecognition": [
      "赵小美",
      "钱多多"
    ],
    "imageTag": [
      "本帮菜",
      "素食",
      "清淡口味",
      "精美摆盘",
      "包间环境",
      "同学聚会",
      "上海菜"
    ],
    "ocrText": "无",
    "shoot_mode": "正常拍照",
    "image_size": "4032×3024"
  },
  {
    "event_id": "788",
    "type": "photo",
    "caption": "同学聚会上与高中同学赵小美、钱多多的合影留念",
    "title": "IMG_20250125_190105",
    "datetime": "2025-01-25 19:01:05",
    "location": {
      "province": "上海市",
      "city": "上海市",
      "district": "浦东新区",
      "streetName": "张杨路",
      "streetNumber": "XX号",
      "poi": "本帮菜餐厅"
    },
    "faceRecognition": [
      "徐静",
      "赵小美",
      "钱多多"
    ],
    "imageTag": [
      "同学聚会",
      "合影留念",
      "高中同学",
      "包间环境",
      "温馨氛围",
      "笑容满面"
    ],
    "ocrText": "无",
    "shoot_mode": "人像",
    "image_size": "3024×4032"
  },
  {
    "event_id": "793",
    "type": "photo",
    "caption": "国风服饰店内新款中式连衣裙，精致刺绣和传统纹样",
    "title": "IMG_20250124_141525",
    "datetime": "2025-01-24 14:15:25",
    "location": {
      "province": "上海市",
      "city": "上海市",
      "district": "黄浦区",
      "streetName": "南京东路",
      "streetNumber": "XX号",
      "poi": "国风服饰店"
    },
    "faceRecognition": [
      "王丽"
    ],
    "imageTag": [
      "国风服饰",
      "中式连衣裙",
      "精致刺绣",
      "传统纹样",
      "新品展示",
      "服饰细节",
      "丝绸面料"
    ],
    "ocrText": "无",
    "shoot_mode": "微距",
    "image_size": "4032×3024"
  },
  {
    "event_id": "793",
    "type": "photo",
    "caption": "与闺蜜王丽在国风服饰店试衣镜前的自拍合影",
    "title": "IMG_20250124_143545",
    "datetime": "2025-01-24 14:35:45",
    "location": {
      "province": "上海市",
      "city": "上海市",
      "district": "黄浦区",
      "streetName": "南京东路",
      "streetNumber": "XX号",
      "poi": "国风服饰店"
    },
    "faceRecognition": [
      "徐静",
      "王丽"
    ],
    "imageTag": [
      "闺蜜逛街",
      "试衣镜自拍",
      "国风服饰店",
      "购物时刻",
      "笑容甜美",
      "休闲时光"
    ],
    "ocrText": "无",
    "shoot_mode": "人像",
    "image_size": "3024×4032"
  },
  {
    "event_id": "784",
    "type": "photo",
    "caption": "工作群内春季新品陈列调整要求的手机截图",
    "title": "IMG_20250120_071215",
    "datetime": "2025-01-20 07:12:15",
    "location": {
      "province": "上海市",
      "city": "上海市",
      "district": "浦东新区",
      "streetName": "世纪大道",
      "streetNumber": "88号",
      "poi": "服装零售店"
    },
    "faceRecognition": "无",
    "imageTag": [
      "工作群",
      "手机截图",
      "春季新品",
      "陈列要求",
      "工作安排",
      "销售管理"
    ],
    "ocrText": "春季新品陈列调整要求：1.主推系列摆放在入口处 2.VIP客户专属区域更新 3.色彩搭配以春季色调为主",
    "shoot_mode": "正常拍照",
    "image_size": "1242×2688"
  },
  {
    "event_id": "784",
    "type": "photo",
    "caption": "店内VIP客户接待区域的春季新品陈列效果",
    "title": "IMG_20250120_091025",
    "datetime": "2025-01-20 09:10:25",
    "location": {
      "province": "上海市",
      "city": "上海市",
      "district": "浦东新区",
      "streetName": "世纪大道",
      "streetNumber": "88号",
      "poi": "服装零售店"
    },
    "faceRecognition": "无",
    "imageTag": [
      "VIP区域",
      "春季新品",
      "服装陈列",
      "色彩搭配",
      "店面环境",
      "销售区域"
    ],
    "ocrText": "无",
    "shoot_mode": "正常拍照",
    "image_size": "4032×3024"
  },
  {
    "event_id": "806_related_1",
    "type": "photo",
    "caption": "智能试衣镜操作文档在电脑屏幕上显示，包含操作步骤和注意事项",
    "title": "IMG_20250121_073905",
    "datetime": "2025-01-21 07:39:05",
    "location": {
      "province": "上海市",
      "city": "上海市",
      "district": "浦东新区",
      "streetName": "世纪大道",
      "streetNumber": "88号",
      "poi": "服装零售店办公室"
    },
    "faceRecognition": "无",
    "imageTag": [
      "智能试衣镜",
      "操作文档",
      "电脑屏幕",
      "步骤说明",
      "注意事项",
      "工作记录"
    ],
    "ocrText": "智能试衣镜操作指南 - 操作步骤：1.开机自检 2.选择模式 3.虚拟试衣 - 注意事项：保持适当距离",
    "shoot_mode": "正常拍照",
    "image_size": "3024×4032"
  },
  {
    "event_id": "806_related_1",
    "type": "photo",
    "caption": "陈丽在会议室白板前讲解智能试衣镜操作要点，白板上写满操作流程",
    "title": "IMG_20250121_073925",
    "datetime": "2025-01-21 07:39:25",
    "location": {
      "province": "上海市",
      "city": "上海市",
      "district": "浦东新区",
      "streetName": "世纪大道",
      "streetNumber": "88号",
      "poi": "服装零售店会议室"
    },
    "faceRecognition": [
      "陈丽"
    ],
    "imageTag": [
      "陈丽",
      "白板讲解",
      "智能试衣镜",
      "操作流程",
      "会议室",
      "工作服"
    ],
    "ocrText": "智能试衣镜操作流程 - 1.开机 2.选择服装 3.虚拟试穿 4.保存效果",
    "shoot_mode": "人像",
    "image_size": "4032×3024"
  },
  {
    "event_id": "809_related_1",
    "type": "photo",
    "caption": "纪念币投资档案本打开在桌面上，页面显示5个潜力品种记录",
    "title": "IMG_20250121_103305",
    "datetime": "2025-01-21 10:33:05",
    "location": {
      "province": "上海市",
      "city": "上海市",
      "district": "浦东新区",
      "streetName": "张杨路",
      "streetNumber": "123号",
      "poi": "家中书房"
    },
    "faceRecognition": "无",
    "imageTag": [
      "纪念币",
      "投资档案",
      "笔记本",
      "潜力品种",
      "收藏记录",
      "钢笔"
    ],
    "ocrText": "纪念币投资档案 - 潜力品种：1.2024熊猫币 2.生肖系列 3.航天纪念币 4.文化遗产 5.重大事件纪念币",
    "shoot_mode": "微距",
    "image_size": "3024×4032"
  },
  {
    "event_id": "810",
    "type": "photo",
    "caption": "招商银行APP界面显示奖金收入12500元，个税扣除2500元",
    "title": "IMG_20250121_114505",
    "datetime": "2025-01-21 11:45:05",
    "location": {
      "province": "上海市",
      "city": "上海市",
      "district": "浦东新区",
      "streetName": "张杨路",
      "streetNumber": "123号",
      "poi": "家中客厅"
    },
    "faceRecognition": "无",
    "imageTag": [
      "招商银行",
      "手机截图",
      "奖金收入",
      "个税扣除",
      "余额显示",
      "理财记录"
    ],
    "ocrText": "招商银行 - 尾号5678卡11:44收入奖金12500元，个税扣除2500元，余额87654元",
    "shoot_mode": "正常拍照",
    "image_size": "3024×4032"
  },
  {
    "event_id": "813_related_1",
    "type": "photo",
    "caption": "春季新品视觉营销方案在平板电脑上展示，色彩过渡效果明显",
    "title": "IMG_20250121_140905",
    "datetime": "2025-01-21 14:09:05",
    "location": {
      "province": "上海市",
      "city": "上海市",
      "district": "浦东新区",
      "streetName": "世纪大道",
      "streetNumber": "88号",
      "poi": "服装零售店展示区"
    },
    "faceRecognition": "无",
    "imageTag": [
      "视觉营销",
      "春季新品",
      "平板电脑",
      "色彩过渡",
      "灯光效果",
      "服装展示"
    ],
    "ocrText": "春季新品视觉营销方案 - 色彩过渡：粉蓝渐变 灯光配合：柔光+聚光 主题：春日花园",
    "shoot_mode": "正常拍照",
    "image_size": "4032×3024"
  },
  {
    "event_id": "813_related_1",
    "type": "photo",
    "caption": "刘伟在样品间调整春季新品服装的灯光效果，背景是服装展示架",
    "title": "IMG_20250121_140925",
    "datetime": "2025-01-21 14:09:25",
    "location": {
      "province": "上海市",
      "city": "上海市",
      "district": "浦东新区",
      "streetName": "世纪大道",
      "streetNumber": "88号",
      "poi": "服装零售店样品间"
    },
    "faceRecognition": [
      "刘伟"
    ],
    "imageTag": [
      "刘伟",
      "灯光调整",
      "春季服装",
      "样品间",
      "展示架",
      "工作场景"
    ],
    "ocrText": "无",
    "shoot_mode": "人像",
    "image_size": "4032×3024"
  },
  {
    "event_id": "815",
    "type": "photo",
    "caption": "超市购买的康复期营养食材摆放在厨房台面，包括燕麦、蛋白粉等",
    "title": "IMG_20250121_163505",
    "datetime": "2025-01-21 16:35:05",
    "location": {
      "province": "上海市",
      "city": "上海市",
      "district": "浦东新区",
      "streetName": "张杨路",
      "streetNumber": "123号",
      "poi": "家中厨房"
    },
    "faceRecognition": "无",
    "imageTag": [
      "康复期食材",
      "燕麦",
      "蛋白粉",
      "营养品",
      "厨房台面",
      "健康饮食"
    ],
    "ocrText": "无",
    "shoot_mode": "正常拍照",
    "image_size": "4032×3024"
  },
  {
    "event_id": "815",
    "type": "photo",
    "caption": "瑜伽垫和运动水壶放在客厅地板上，准备晚上的瑜伽练习",
    "title": "IMG_20250121_163525",
    "datetime": "2025-01-21 16:35:25",
    "location": {
      "province": "上海市",
      "city": "上海市",
      "district": "浦东新区",
      "streetName": "张杨路",
      "streetNumber": "123号",
      "poi": "家中客厅"
    },
    "faceRecognition": "无",
    "imageTag": [
      "瑜伽垫",
      "运动水壶",
      "健身装备",
      "客厅",
      "居家运动",
      "紫色瑜伽垫"
    ],
    "ocrText": "无",
    "shoot_mode": "正常拍照",
    "image_size": "3024×4032"
  },
  {
    "event_id": "816_related_1",
    "type": "photo",
    "caption": "合作方案文件整齐摆放在办公桌上，封面印有供应商合作字样",
    "title": "IMG_20250121_174305",
    "datetime": "2025-01-21 17:43:05",
    "location": {
      "province": "上海市",
      "city": "上海市",
      "district": "浦东新区",
      "streetName": "世纪大道",
      "streetNumber": "88号",
      "poi": "服装零售店办公室"
    },
    "faceRecognition": "无",
    "imageTag": [
      "合作方案",
      "文件整理",
      "办公桌",
      "供应商合作",
      "商务文件",
      "文件夹"
    ],
    "ocrText": "供应商合作方案 - 孙老板 - 考察时间：2025-01-22 10:00 - 合作内容：春季新品供应",
    "shoot_mode": "微距",
    "image_size": "3024×4032"
  },
  {
    "event_id": "819_related_1",
    "type": "photo",
    "caption": "共享文件夹中的客户资料在电脑屏幕上显示，包含接待流程说明",
    "title": "IMG_20250121_201405",
    "datetime": "2025-01-21 20:14:05",
    "location": {
      "province": "上海市",
      "city": "上海市",
      "district": "浦东新区",
      "streetName": "张杨路",
      "streetNumber": "123号",
      "poi": "家中书房"
    },
    "faceRecognition": "无",
    "imageTag": [
      "客户资料",
      "共享文件夹",
      "电脑屏幕",
      "接待流程",
      "工作文档",
      "晚间工作"
    ],
    "ocrText": "客户接待资料 - 接待时间：09:30-11:30 客户：李女士 事项：春季新品预览",
    "shoot_mode": "正常拍照",
    "image_size": "3024×4032"
  },
  {
    "event_id": "825_related_1",
    "type": "photo",
    "caption": "陈丽在办公室整理智能试衣镜字体调整方案，电脑屏幕显示改进文档",
    "title": "IMG_20250122_073500",
    "datetime": "2025-01-22 07:35:00",
    "location": {
      "province": "上海市",
      "city": "上海市",
      "district": "浦东新区",
      "streetName": "世纪大道",
      "streetNumber": "88号",
      "poi": "时尚服饰零售企业办公室"
    },
    "faceRecognition": [
      "陈丽"
    ],
    "imageTag": [
      "智能试衣镜",
      "字体调整",
      "电脑屏幕",
      "办公桌",
      "文档整理",
      "工作环境"
    ],
    "ocrText": "智能试衣镜改进方案 - 字体优化建议 2025年1月22日",
    "shoot_mode": "正常拍照",
    "image_size": "4032×3024"
  },
  {
    "event_id": "825_related_1",
    "type": "photo",
    "caption": "会议纪要手写板记录着字体调整要点，旁边放着咖啡杯",
    "title": "IMG_20250122_073600",
    "datetime": "2025-01-22 07:36:00",
    "location": {
      "province": "上海市",
      "city": "上海市",
      "district": "浦东新区",
      "streetName": "世纪大道",
      "streetNumber": "88号",
      "poi": "时尚服饰零售企业会议室"
    },
    "faceRecognition": [
      "无"
    ],
    "imageTag": [
      "手写板",
      "会议纪要",
      "字体调整",
      "咖啡杯",
      "办公文具",
      "白板笔"
    ],
    "ocrText": "字体调整要点：1.增大字号 2.优化字体颜色 3.调整行间距",
    "shoot_mode": "正常拍照",
    "image_size": "3024×4032"
  },
  {
    "event_id": "831",
    "type": "photo",
    "caption": "李芳在家中厨房准备午餐，灶台上炖着汤锅",
    "title": "IMG_20250122_113500",
    "datetime": "2025-01-22 11:35:00",
    "location": {
      "province": "上海市",
      "city": "上海市",
      "district": "浦东新区",
      "streetName": "张杨路",
      "streetNumber": "123号",
      "poi": "徐静家厨房"
    },
    "faceRecognition": [
      "李芳"
    ],
    "imageTag": [
      "家常菜",
      "厨房",
      "炖汤",
      "灶台",
      "午餐准备",
      "食材"
    ],
    "ocrText": "无",
    "shoot_mode": "正常拍照",
    "image_size": "4032×3024"
  },
  {
    "event_id": "831",
    "type": "photo",
    "caption": "餐桌摆放着上海小笼包和几道家常菜，餐具整齐",
    "title": "IMG_20250122_120000",
    "datetime": "2025-01-22 12:00:00",
    "location": {
      "province": "上海市",
      "city": "上海市",
      "district": "浦东新区",
      "streetName": "张杨路",
      "streetNumber": "123号",
      "poi": "徐静家餐厅"
    },
    "faceRecognition": [
      "无"
    ],
    "imageTag": [
      "上海小笼包",
      "家常菜",
      "餐桌",
      "餐具",
      "午餐",
      "美食"
    ],
    "ocrText": "无",
    "shoot_mode": "微距",
    "image_size": "4032×3024"
  },
  {
    "event_id": "834_related_1",
    "type": "photo",
    "caption": "2024年熊猫纪念币特写，旁边放着收藏册",
    "title": "IMG_20250122_144500",
    "datetime": "2025-01-22 14:45:00",
    "location": {
      "province": "上海市",
      "city": "上海市",
      "district": "浦东新区",
      "streetName": "张杨路",
      "streetNumber": "123号",
      "poi": "徐静家书房"
    },
    "faceRecognition": [
      "无"
    ],
    "imageTag": [
      "熊猫纪念币",
      "2024年",
      "钱币收藏",
      "特写",
      "金属光泽",
      "收藏册"
    ],
    "ocrText": "2024年熊猫纪念币 面值：10元 发行量：10000枚",
    "shoot_mode": "微距",
    "image_size": "4032×3024"
  },
  {
    "event_id": "834_related_1",
    "type": "photo",
    "caption": "纪念币收藏册展开，展示多个年份的熊猫币",
    "title": "IMG_20250122_144800",
    "datetime": "2025-01-22 14:48:00",
    "location": {
      "province": "上海市",
      "city": "上海市",
      "district": "浦东新区",
      "streetName": "张杨路",
      "streetNumber": "123号",
      "poi": "徐静家书房"
    },
    "faceRecognition": [
      "无"
    ],
    "imageTag": [
      "纪念币收藏册",
      "熊猫币",
      "钱币展示",
      "收藏品",
      "年份系列",
      "保护膜"
    ],
    "ocrText": "熊猫纪念币收藏册 2019-2024年系列",
    "shoot_mode": "正常拍照",
    "image_size": "4032×3024"
  },
  {
    "event_id": "837_related_1",
    "type": "photo",
    "caption": "明天晨会议程文档在电脑屏幕上显示，旁边放着笔记本",
    "title": "IMG_20250122_163500",
    "datetime": "2025-01-22 16:35:00",
    "location": {
      "province": "上海市",
      "city": "上海市",
      "district": "浦东新区",
      "streetName": "世纪大道",
      "streetNumber": "88号",
      "poi": "时尚服饰零售企业办公室"
    },
    "faceRecognition": [
      "无"
    ],
    "imageTag": [
      "晨会议程",
      "电脑屏幕",
      "工作计划",
      "办公桌",
      "文档",
      "工作安排"
    ],
    "ocrText": "晨会议程 2025年1月23日 1.销售数据汇报 2.新品上市计划 3.客户反馈讨论",
    "shoot_mode": "正常拍照",
    "image_size": "4032×3024"
  },
  {
    "event_id": "842",
    "type": "photo",
    "caption": "零售数字化转型培训课程PPT截图，显示数据分析图表",
    "title": "IMG_20250122_211000",
    "datetime": "2025-01-22 21:10:00",
    "location": {
      "province": "上海市",
      "city": "上海市",
      "district": "浦东新区",
      "streetName": "张杨路",
      "streetNumber": "123号",
      "poi": "徐静家书房"
    },
    "faceRecognition": [
      "无"
    ],
    "imageTag": [
      "培训课程",
      "PPT截图",
      "数字化转型",
      "数据分析",
      "零售行业",
      "学习资料"
    ],
    "ocrText": "零售数字化转型培训 数据分析模块 2025年1月22日",
    "shoot_mode": "正常拍照",
    "image_size": "4032×3024"
  },
  {
    "event_id": "847_related_1",
    "type": "photo",
    "caption": "徐静在办公室拍摄新品面料样品，样品平铺在白色背景布上",
    "title": "IMG_20250123_073950",
    "datetime": "2025-01-23 07:39:50",
    "location": {
      "province": "上海市",
      "city": "上海市",
      "district": "浦东新区",
      "streetName": "世纪大道",
      "streetNumber": "88号",
      "poi": "时尚服饰零售企业办公室"
    },
    "faceRecognition": [
      "无"
    ],
    "imageTag": [
      "面料样品",
      "纺织纹理",
      "白色背景",
      "产品拍摄",
      "细节特写",
      "服装材料"
    ],
    "ocrText": "新品面料编号：NF20250123 成分：棉80% 涤纶20%",
    "shoot_mode": "微距",
    "image_size": "4032×3024"
  },
  {
    "event_id": "849_related_1",
    "type": "photo",
    "caption": "徐静拍摄智能试衣镜屏幕上显示的字体调整方案",
    "title": "IMG_20250123_081000",
    "datetime": "2025-01-23 08:10:00",
    "location": {
      "province": "上海市",
      "city": "上海市",
      "district": "浦东新区",
      "streetName": "世纪大道",
      "streetNumber": "88号",
      "poi": "服装店试衣区"
    },
    "faceRecognition": [
      "无"
    ],
    "imageTag": [
      "智能试衣镜",
      "屏幕截图",
      "字体调整",
      "界面设计",
      "零售科技",
      "显示效果"
    ],
    "ocrText": "字体调整方案：思源黑体 Regular 24pt 行距1.5倍",
    "shoot_mode": "正常拍照",
    "image_size": "3024×4032"
  },
  {
    "event_id": "850",
    "type": "photo",
    "caption": "徐静在办公桌前拍摄春季陈列方案打印稿",
    "title": "IMG_20250123_092600",
    "datetime": "2025-01-23 09:26:00",
    "location": {
      "province": "上海市",
      "city": "上海市",
      "district": "浦东新区",
      "streetName": "世纪大道",
      "streetNumber": "88号",
      "poi": "服装店办公室"
    },
    "faceRecognition": [
      "无"
    ],
    "imageTag": [
      "陈列方案",
      "打印稿",
      "春季主题",
      "色彩搭配",
      "文档扫描",
      "办公桌"
    ],
    "ocrText": "春季陈列方案V3.0 主题：春日花园 执行日期：2025.02.01-04.30",
    "shoot_mode": "正常拍照",
    "image_size": "4032×3024"
  },
  {
    "event_id": "852",
    "type": "photo",
    "caption": "徐静拍摄供应商视频会议PPT截图，展示新品上市计划",
    "title": "IMG_20250123_143000",
    "datetime": "2025-01-23 14:30:00",
    "location": {
      "province": "上海市",
      "city": "上海市",
      "district": "浦东新区",
      "streetName": "世纪大道",
      "streetNumber": "88号",
      "poi": "服装店会议室"
    },
    "faceRecognition": [
      "无"
    ],
    "imageTag": [
      "PPT截图",
      "供应商会议",
      "新品上市",
      "时间规划",
      "业务计划",
      "屏幕拍摄"
    ],
    "ocrText": "2025春季新品上市计划 时间节点：2月15日首批到货 3月1日正式上市",
    "shoot_mode": "正常拍照",
    "image_size": "4032×3024"
  },
  {
    "event_id": "855",
    "type": "photo",
    "caption": "徐静拍摄会议纪要手写笔记，重点标注设计调整细节",
    "title": "IMG_20250123_150500",
    "datetime": "2025-01-23 15:05:00",
    "location": {
      "province": "上海市",
      "city": "上海市",
      "district": "浦东新区",
      "streetName": "世纪大道",
      "streetNumber": "88号",
      "poi": "服装店会议室"
    },
    "faceRecognition": [
      "无"
    ],
    "imageTag": [
      "会议纪要",
      "手写笔记",
      "设计调整",
      "重点标注",
      "工作记录",
      "笔记本"
    ],
    "ocrText": "会议纪要20250123 重点：3款设计调整 1.领口收窄2cm 2.袖长增加1cm 3.面料更换为NF20250123",
    "shoot_mode": "正常拍照",
    "image_size": "3024×4032"
  },
  {
    "event_id": "857",
    "type": "photo",
    "caption": "徐静在健身房拍摄腰围测量数据",
    "title": "IMG_20250123_171500",
    "datetime": "2025-01-23 17:15:00",
    "location": {
      "province": "上海市",
      "city": "上海市",
      "district": "浦东新区",
      "streetName": "张杨路",
      "streetNumber": "456号",
      "poi": "励健健身中心"
    },
    "faceRecognition": [
      "无"
    ],
    "imageTag": [
      "腰围测量",
      "健身记录",
      "卷尺",
      "数据记录",
      "健身成果",
      "核心训练"
    ],
    "ocrText": "腰围：68.5cm 日期：2025.01.23 较上月减少2cm",
    "shoot_mode": "正常拍照",
    "image_size": "3024×4032"
  },
  {
    "event_id": "861",
    "type": "photo",
    "caption": "徐静在家拍摄高中同学聚会活动策划手稿",
    "title": "IMG_20250123_211800",
    "datetime": "2025-01-23 21:18:00",
    "location": {
      "province": "上海市",
      "city": "上海市",
      "district": "浦东新区",
      "streetName": "张杨路",
      "streetNumber": "123号",
      "poi": "徐静家"
    },
    "faceRecognition": [
      "无"
    ],
    "imageTag": [
      "同学聚会",
      "活动策划",
      "手写稿",
      "互动环节",
      "高中回忆",
      "周末安排"
    ],
    "ocrText": "高中同学聚会活动安排 主题：最难忘的高中老师 班级趣事分享 时间：1月25日周六14:00",
    "shoot_mode": "正常拍照",
    "image_size": "4032×3024"
  },
  {
    "event_id": "867",
    "type": "photo",
    "caption": "样品包装盒整齐摆放在办公桌上，旁边放着检查标准和记录本",
    "title": "IMG_20250124_073600",
    "datetime": "2025-01-24 07:36:00",
    "location": {
      "province": "上海市",
      "city": "上海市",
      "district": "浦东新区",
      "streetName": "世纪大道",
      "streetNumber": "88号",
      "poi": "时尚服饰零售企业"
    },
    "faceRecognition": "无",
    "imageTag": [
      "样品包装盒",
      "办公桌",
      "检查标准",
      "记录本",
      "工作环境",
      "文档扫描",
      "白色背景",
      "整齐摆放"
    ],
    "ocrText": "样品编号：SP20250124 检查标准：GB/T 22849-2024 送达时间：10:30",
    "shoot_mode": "正常拍照",
    "image_size": "4032×3024"
  },
  {
    "event_id": "867",
    "type": "photo",
    "caption": "孙老板发来的样品检查标准短信截图，显示送达时间和准备要求",
    "title": "IMG_20250124_073630",
    "datetime": "2025-01-24 07:36:30",
    "location": {
      "province": "上海市",
      "city": "上海市",
      "district": "浦东新区",
      "streetName": "世纪大道",
      "streetNumber": "88号",
      "poi": "时尚服饰零售企业"
    },
    "faceRecognition": "无",
    "imageTag": [
      "手机屏幕",
      "短信截图",
      "样品信息",
      "检查标准",
      "工作沟通",
      "文档记录",
      "蓝色界面",
      "文字信息"
    ],
    "ocrText": "样品预计10:30送达，请准备好检查标准 发件人：孙老板 时间：2025-01-24 07:35",
    "shoot_mode": "正常拍照",
    "image_size": "3024×4032"
  },
  {
    "event_id": "872_related_1",
    "type": "photo",
    "caption": "会议资料和奖金分配方案要点整理在办公桌上，旁边放着笔记本电脑",
    "title": "IMG_20250124_110500",
    "datetime": "2025-01-24 11:05:00",
    "location": {
      "province": "上海市",
      "city": "上海市",
      "district": "浦东新区",
      "streetName": "世纪大道",
      "streetNumber": "88号",
      "poi": "时尚服饰零售企业"
    },
    "faceRecognition": "无",
    "imageTag": [
      "会议资料",
      "奖金分配方案",
      "办公桌",
      "笔记本电脑",
      "文件整理",
      "工作准备",
      "白色文件夹",
      "黑色电脑"
    ],
    "ocrText": "会议资料 - 2025年第一季度奖金分配方案 要点：1.绩效评估 2.分配比例 3.发放时间",
    "shoot_mode": "正常拍照",
    "image_size": "4032×3024"
  },
  {
    "event_id": "875",
    "type": "photo",
    "caption": "下午样品检查准备工作完成后的工作台，各种检查工具整齐摆放",
    "title": "IMG_20250124_130500",
    "datetime": "2025-01-24 13:05:00",
    "location": {
      "province": "上海市",
      "city": "上海市",
      "district": "浦东新区",
      "streetName": "世纪大道",
      "streetNumber": "88号",
      "poi": "时尚服饰零售企业"
    },
    "faceRecognition": "无",
    "imageTag": [
      "样品检查",
      "工作台",
      "检查工具",
      "测量仪器",
      "工作准备",
      "物品收纳",
      "金属工具",
      "塑料容器"
    ],
    "ocrText": "样品检查准备工作清单 完成时间：13:03 检查员：徐静",
    "shoot_mode": "正常拍照",
    "image_size": "4032×3024"
  },
  {
    "event_id": "878",
    "type": "photo",
    "caption": "抹茶拿铁和草莓蛋糕摆放在日料店餐桌上，精致的日式餐具",
    "title": "IMG_20250124_153500",
    "datetime": "2025-01-24 15:35:00",
    "location": {
      "province": "上海市",
      "city": "上海市",
      "district": "黄浦区",
      "streetName": "南京东路",
      "streetNumber": "XX号",
      "poi": "上次那家日料店"
    },
    "faceRecognition": [
      "王丽"
    ],
    "imageTag": [
      "抹茶拿铁",
      "草莓蛋糕",
      "日料店",
      "日式餐具",
      "美食记录",
      "闺蜜聚会",
      "绿色抹茶",
      "红色草莓"
    ],
    "ocrText": "无",
    "shoot_mode": "人像",
    "image_size": "3024×4032"
  },
  {
    "event_id": "878",
    "type": "photo",
    "caption": "王丽在日料店拿着菜单推荐菜品，背景是日式装修风格",
    "title": "IMG_20250124_153530",
    "datetime": "2025-01-24 15:35:30",
    "location": {
      "province": "上海市",
      "city": "上海市",
      "district": "黄浦区",
      "streetName": "南京东路",
      "streetNumber": "XX号",
      "poi": "上次那家日料店"
    },
    "faceRecognition": [
      "王丽"
    ],
    "imageTag": [
      "王丽",
      "日料店",
      "菜单",
      "菜品推荐",
      "人物合影",
      "日式装修",
      "木质桌椅",
      "和风装饰"
    ],
    "ocrText": "周末聚会推荐 地点：上次那家日料店 时间：2025-01-24",
    "shoot_mode": "人像",
    "image_size": "4032×3024"
  },
  {
    "event_id": "881",
    "type": "photo",
    "caption": "最后一个确认合格的样品特写，标签显示质量符合要求",
    "title": "IMG_20250124_165100",
    "datetime": "2025-01-24 16:51:00",
    "location": {
      "province": "上海市",
      "city": "上海市",
      "district": "浦东新区",
      "streetName": "世纪大道",
      "streetNumber": "88号",
      "poi": "时尚服饰零售企业"
    },
    "faceRecognition": "无",
    "imageTag": [
      "合格样品",
      "质量确认",
      "产品标签",
      "细节特写",
      "工作完成",
      "服装样品",
      "白色标签",
      "红色合格章"
    ],
    "ocrText": "样品编号：SP20250124-01 质量状态：符合要求 确认时间：2025-01-24 16:50",
    "shoot_mode": "微距",
    "image_size": "4032×3024"
  },
  {
    "event_id": "889",
    "type": "photo",
    "caption": "徐静在家中整理准备带回的9份纪念品，包括上海特色冰箱贴和明信片",
    "title": "IMG_20250125_063800",
    "datetime": "2025-01-25 06:38:00",
    "location": {
      "province": "上海市",
      "city": "上海市",
      "district": "浦东新区",
      "streetName": "张杨路",
      "streetNumber": "123号",
      "poi": "徐静家"
    },
    "faceRecognition": [
      "无"
    ],
    "imageTag": [
      "纪念品",
      "冰箱贴",
      "明信片",
      "上海特色",
      "礼品包装",
      "清晨",
      "居家"
    ],
    "ocrText": "无",
    "shoot_mode": "正常拍照",
    "image_size": "4032×3024"
  },
  {
    "event_id": "889",
    "type": "photo",
    "caption": "徐静拍摄纪念币收藏盒特写，展示不同年份的纪念币排列整齐",
    "title": "IMG_20250125_064000",
    "datetime": "2025-01-25 06:40:00",
    "location": {
      "province": "上海市",
      "city": "上海市",
      "district": "浦东新区",
      "streetName": "张杨路",
      "streetNumber": "123号",
      "poi": "徐静家"
    },
    "faceRecognition": [
      "无"
    ],
    "imageTag": [
      "纪念币",
      "收藏盒",
      "金属光泽",
      "特写",
      "排列整齐",
      "钱币",
      "个人收藏"
    ],
    "ocrText": "无",
    "shoot_mode": "微距",
    "image_size": "3024×4032"
  },
  {
    "event_id": "895",
    "type": "photo",
    "caption": "徐静在上海正顶菜馆拍摄清炒时蔬特写，确保没有海鲜酱配料",
    "title": "IMG_20250125_131700",
    "datetime": "2025-01-25 13:17:00",
    "location": {
      "province": "上海市",
      "city": "上海市",
      "district": "浦东新区",
      "streetName": "世纪大道",
      "streetNumber": "88号",
      "poi": "上海正顶菜馆"
    },
    "faceRecognition": [
      "无"
    ],
    "imageTag": [
      "清炒时蔬",
      "青菜",
      "香菇",
      "胡萝卜",
      "菜品特写",
      "午餐",
      "餐厅"
    ],
    "ocrText": "无",
    "shoot_mode": "微距",
    "image_size": "4032×3024"
  },
  {
    "event_id": "895",
    "type": "photo",
    "caption": "徐静拍摄上海正顶菜馆菜单特写，突出海鲜过敏注意事项",
    "title": "IMG_20250125_131800",
    "datetime": "2025-01-25 13:18:00",
    "location": {
      "province": "上海市",
      "city": "上海市",
      "district": "浦东新区",
      "streetName": "世纪大道",
      "streetNumber": "88号",
      "poi": "上海正顶菜馆"
    },
    "faceRecognition": [
      "无"
    ],
    "imageTag": [
      "菜单",
      "菜品列表",
      "价格",
      "注意事项",
      "纸质",
      "餐厅"
    ],
    "ocrText": "上海正顶菜馆 招牌清炒时蔬 ￥48 备注：不含海鲜酱",
    "shoot_mode": "正常拍照",
    "image_size": "3024×4032"
  },
  {
    "event_id": "897",
    "type": "photo",
    "caption": "徐静在聚会场地拍摄挂好的欢迎横幅，红色背景金色字体",
    "title": "IMG_20250125_153300",
    "datetime": "2025-01-25 15:33:00",
    "location": {
      "province": "上海市",
      "city": "上海市",
      "district": "浦东新区",
      "streetName": "世纪大道",
      "streetNumber": "88号",
      "poi": "聚会场地"
    },
    "faceRecognition": [
      "无"
    ],
    "imageTag": [
      "欢迎横幅",
      "红色背景",
      "金色字体",
      "悬挂",
      "聚会装饰",
      "场地布置"
    ],
    "ocrText": "热烈欢迎各位同学莅临 2025年同学聚会",
    "shoot_mode": "正常拍照",
    "image_size": "4032×3024"
  },
  {
    "event_id": "897",
    "type": "photo",
    "caption": "徐静测试投影设备，拍摄投屏效果显示聚会主题PPT",
    "title": "IMG_20250125_153500",
    "datetime": "2025-01-25 15:35:00",
    "location": {
      "province": "上海市",
      "city": "上海市",
      "district": "浦东新区",
      "streetName": "世纪大道",
      "streetNumber": "88号",
      "poi": "聚会场地"
    },
    "faceRecognition": [
      "无"
    ],
    "imageTag": [
      "投影设备",
      "投屏",
      "PPT",
      "聚会主题",
      "技术测试",
      "白色幕布"
    ],
    "ocrText": "2025同学聚会 重温青春岁月",
    "shoot_mode": "正常拍照",
    "image_size": "4032×3024"
  },
  {
    "event_id": "898",
    "type": "photo",
    "caption": "徐静与王丽在签到墙前合影，背景是彩色气球装饰",
    "title": "IMG_20250125_162700",
    "datetime": "2025-01-25 16:27:00",
    "location": {
      "province": "上海市",
      "city": "上海市",
      "district": "浦东新区",
      "streetName": "世纪大道",
      "streetNumber": "88号",
      "poi": "聚会场地"
    },
    "faceRecognition": [
      "徐静",
      "王丽"
    ],
    "imageTag": [
      "签到墙",
      "合影",
      "气球装饰",
      "微笑",
      "闺蜜",
      "聚会准备"
    ],
    "ocrText": "无",
    "shoot_mode": "人像",
    "image_size": "4032×3024"
  },
  {
    "event_id": "898",
    "type": "photo",
    "caption": "徐静拍摄装饰精美的签到墙特写，彩色马克笔和签名区",
    "title": "IMG_20250125_162800",
    "datetime": "2025-01-25 16:28:00",
    "location": {
      "province": "上海市",
      "city": "上海市",
      "district": "浦东新区",
      "streetName": "世纪大道",
      "streetNumber": "88号",
      "poi": "聚会场地"
    },
    "faceRecognition": [
      "无"
    ],
    "imageTag": [
      "签到墙",
      "彩色马克笔",
      "签名区",
      "装饰",
      "细节特写",
      "聚会用品"
    ],
    "ocrText": "请在此处签名 2025.01.25",
    "shoot_mode": "微距",
    "image_size": "3024×4032"
  },
  {
    "event_id": "901",
    "type": "photo",
    "caption": "徐静与同学们在聚会现场大合影，大家举杯庆祝",
    "title": "IMG_20250125_204800",
    "datetime": "2025-01-25 20:48:00",
    "location": {
      "province": "上海市",
      "city": "上海市",
      "district": "浦东新区",
      "streetName": "世纪大道",
      "streetNumber": "88号",
      "poi": "聚会场地"
    },
    "faceRecognition": [
      "徐静",
      "王丽",
      "赵小美",
      "钱多多",
      "同学若干"
    ],
    "imageTag": [
      "大合影",
      "举杯",
      "庆祝",
      "笑容",
      "聚会成功",
      "集体照"
    ],
    "ocrText": "无",
    "shoot_mode": "人像",
    "image_size": "4032×3024"
  },
  {
    "event_id": "901",
    "type": "photo",
    "caption": "徐静拍摄聚会餐桌上的草莓蛋糕特写，装饰精美",
    "title": "IMG_20250125_205000",
    "datetime": "2025-01-25 20:50:00",
    "location": {
      "province": "上海市",
      "city": "上海市",
      "district": "浦东新区",
      "streetName": "世纪大道",
      "streetNumber": "88号",
      "poi": "聚会场地"
    },
    "faceRecognition": [
      "无"
    ],
    "imageTag": [
      "草莓蛋糕",
      "奶油装饰",
      "甜品特写",
      "聚会美食",
      "新鲜草莓",
      "餐后甜点"
    ],
    "ocrText": "无",
    "shoot_mode": "微距",
    "image_size": "3024×4032"
  },
  {
    "event_id": "908_related_1",
    "type": "photo",
    "caption": "徐静在浦东新区世纪大道88号服装店门口拍摄晨间街景，准备迎接早市顾客",
    "title": "IMG_20250126_073500",
    "datetime": "2025-01-26 07:35:00",
    "location": {
      "province": "上海市",
      "city": "上海市",
      "district": "浦东新区",
      "streetName": "世纪大道",
      "streetNumber": "88号",
      "poi": "时尚服饰零售企业"
    },
    "faceRecognition": "无",
    "imageTag": [
      "晨光",
      "街道",
      "服装店",
      "橱窗",
      "早市",
      "行人",
      "城市清晨",
      "商业区"
    ],
    "ocrText": "无",
    "shoot_mode": "正常拍照",
    "image_size": "4032×3024"
  },
  {
    "event_id": "908_related_1",
    "type": "photo",
    "caption": "徐静在店内拍摄新到货的春季女装陈列，衣架上挂满色彩鲜艳的连衣裙",
    "title": "IMG_20250126_074000",
    "datetime": "2025-01-26 07:40:00",
    "location": {
      "province": "上海市",
      "city": "上海市",
      "district": "浦东新区",
      "streetName": "世纪大道",
      "streetNumber": "88号",
      "poi": "时尚服饰零售企业"
    },
    "faceRecognition": "无",
    "imageTag": [
      "春季女装",
      "连衣裙",
      "衣架",
      "陈列",
      "色彩鲜艳",
      "新品",
      "店铺装修",
      "时尚"
    ],
    "ocrText": "无",
    "shoot_mode": "正常拍照",
    "image_size": "3024×4032"
  },
  {
    "event_id": "918",
    "type": "photo",
    "caption": "徐静在办公桌前拍摄整理好的考察资料文档，电脑屏幕上显示电子表格",
    "title": "IMG_20250126_155800",
    "datetime": "2025-01-26 15:58:00",
    "location": {
      "province": "上海市",
      "city": "上海市",
      "district": "浦东新区",
      "streetName": "世纪大道",
      "streetNumber": "88号",
      "poi": "时尚服饰零售企业"
    },
    "faceRecognition": "无",
    "imageTag": [
      "办公桌",
      "文档",
      "电脑屏幕",
      "电子表格",
      "文件夹",
      "签字笔",
      "工作记录",
      "资料整理"
    ],
    "ocrText": "市场考察报告 2025年1月26日 供应商：江南时尚",
    "shoot_mode": "正常拍照",
    "image_size": "4032×3024"
  },
  {
    "event_id": "918",
    "type": "photo",
    "caption": "徐静拍摄发给李雪梅的邮件确认截图，收件箱显示已发送状态",
    "title": "IMG_20250126_160200",
    "datetime": "2025-01-26 16:02:00",
    "location": {
      "province": "上海市",
      "city": "上海市",
      "district": "浦东新区",
      "streetName": "世纪大道",
      "streetNumber": "88号",
      "poi": "时尚服饰零售企业"
    },
    "faceRecognition": "无",
    "imageTag": [
      "电脑屏幕",
      "邮件界面",
      "已发送",
      "收件人",
      "附件",
      "确认截图",
      "工作沟通"
    ],
    "ocrText": "收件人：lixuemei@jiangnanshishang.com 主题：市场考察资料 发送时间：2025-01-26 16:01:45",
    "shoot_mode": "正常拍照",
    "image_size": "4032×3024"
  },
  {
    "event_id": "921_related_2",
    "type": "photo",
    "caption": "徐静在家拍摄春节聚会邀请信息，手机屏幕上显示与舅舅刘建国的聊天记录",
    "title": "IMG_20250126_191500",
    "datetime": "2025-01-26 19:15:00",
    "location": {
      "province": "上海市",
      "city": "上海市",
      "district": "浦东新区",
      "streetName": "张杨路",
      "streetNumber": "123号",
      "poi": "徐静家"
    },
    "faceRecognition": "无",
    "imageTag": [
      "手机屏幕",
      "聊天记录",
      "春节聚会",
      "邀请信息",
      "家庭群",
      "节日安排",
      "亲情沟通"
    ],
    "ocrText": "春节家庭聚会 时间：2025年2月10日18:00 地点：浦东新区张杨路123号",
    "shoot_mode": "正常拍照",
    "image_size": "3024×4032"
  },
  {
    "event_id": "921_related_2",
    "type": "photo",
    "caption": "徐静在客厅拍摄为春节聚会准备的纪念币收藏展示盒",
    "title": "IMG_20250126_192000",
    "datetime": "2025-01-26 19:20:00",
    "location": {
      "province": "上海市",
      "city": "上海市",
      "district": "浦东新区",
      "streetName": "张杨路",
      "streetNumber": "123号",
      "poi": "徐静家"
    },
    "faceRecognition": "无",
    "imageTag": [
      "纪念币",
      "收藏盒",
      "展示",
      "春节装饰",
      "客厅",
      "收藏品",
      "金属光泽",
      "特殊爱好"
    ],
    "ocrText": "无",
    "shoot_mode": "微距",
    "image_size": "4032×3024"
  },
  {
    "event_id": "932",
    "type": "photo",
    "caption": "徐静在服装店仓库拍摄新采购的灭火器，红色灭火器放置在货架上",
    "title": "IMG_20250127_102700",
    "datetime": "2025-01-27 10:27:00",
    "location": {
      "province": "上海市",
      "city": "上海市",
      "district": "浦东新区",
      "streetName": "世纪大道",
      "streetNumber": "88号",
      "poi": "明方服饰店"
    },
    "faceRecognition": "无",
    "imageTag": [
      "灭火器",
      "红色",
      "消防设备",
      "货架",
      "仓库",
      "安全检查",
      "工作记录"
    ],
    "ocrText": "MFZ/ABC4 干粉灭火器 4kg 有效期至2026-12-31",
    "shoot_mode": "正常拍照",
    "image_size": "4032×3024"
  },
  {
    "event_id": "932",
    "type": "photo",
    "caption": "徐静拍摄应急灯安装情况，白色应急灯固定在天花板位置",
    "title": "IMG_20250127_102705",
    "datetime": "2025-01-27 10:27:05",
    "location": {
      "province": "上海市",
      "city": "上海市",
      "district": "浦东新区",
      "streetName": "世纪大道",
      "streetNumber": "88号",
      "poi": "明方服饰店"
    },
    "faceRecognition": "无",
    "imageTag": [
      "应急灯",
      "白色",
      "天花板",
      "安全设备",
      "照明",
      "消防检查",
      "工作环境"
    ],
    "ocrText": "LED应急照明灯 功率18W 续航时间≥90分钟",
    "shoot_mode": "正常拍照",
    "image_size": "3024×4032"
  },
  {
    "event_id": "933",
    "type": "photo",
    "caption": "徐静在店内试戴银色项链，对着镜子自拍展示配饰效果",
    "title": "IMG_20250127_111800",
    "datetime": "2025-01-27 11:18:00",
    "location": {
      "province": "上海市",
      "city": "上海市",
      "district": "浦东新区",
      "streetName": "世纪大道",
      "streetNumber": "88号",
      "poi": "明方服饰店"
    },
    "faceRecognition": [
      "徐静"
    ],
    "imageTag": [
      "银色项链",
      "配饰",
      "镜子自拍",
      "试戴",
      "时尚",
      "金属质感",
      "服装店"
    ],
    "ocrText": "无",
    "shoot_mode": "人像",
    "image_size": "3024×4032"
  },
  {
    "event_id": "933",
    "type": "photo",
    "caption": "徐静手持两款耳环对比拍摄，珍珠耳环和金属耳环并排摆放",
    "title": "IMG_20250127_111805",
    "datetime": "2025-01-27 11:18:05",
    "location": {
      "province": "上海市",
      "city": "上海市",
      "district": "浦东新区",
      "streetName": "世纪大道",
      "streetNumber": "88号",
      "poi": "明方服饰店"
    },
    "faceRecognition": "无",
    "imageTag": [
      "珍珠耳环",
      "金属耳环",
      "配饰对比",
      "手持拍摄",
      "时尚单品",
      "细节展示"
    ],
    "ocrText": "无",
    "shoot_mode": "微距",
    "image_size": "4032×3024"
  },
  {
    "event_id": "941",
    "type": "photo",
    "caption": "徐静在收藏室拍摄熊猫纪念币，金币在黑色绒布上展示",
    "title": "IMG_20250127_153600",
    "datetime": "2025-01-27 15:36:00",
    "location": {
      "province": "上海市",
      "city": "上海市",
      "district": "浦东新区",
      "streetName": "张杨路",
      "streetNumber": "123号",
      "poi": "徐静家"
    },
    "faceRecognition": "无",
    "imageTag": [
      "熊猫纪念币",
      "金币",
      "收藏品",
      "黑色绒布",
      "钱币",
      "投资",
      "贵金属"
    ],
    "ocrText": "2024版熊猫金币 30克 含金量99.9% 面值500元",
    "shoot_mode": "微距",
    "image_size": "4032×3024"
  },
  {
    "event_id": "941",
    "type": "photo",
    "caption": "徐静拍摄纪念币收藏证书，红色证书展开在桌面上",
    "title": "IMG_20250127_153605",
    "datetime": "2025-01-27 15:36:05",
    "location": {
      "province": "上海市",
      "city": "上海市",
      "district": "浦东新区",
      "streetName": "张杨路",
      "streetNumber": "123号",
      "poi": "徐静家"
    },
    "faceRecognition": "无",
    "imageTag": [
      "收藏证书",
      "红色",
      "纪念币",
      "文件",
      "认证",
      "投资凭证",
      "桌面"
    ],
    "ocrText": "中国金币总公司 收藏证书 编号2024-008756 发行日期2024-01-15",
    "shoot_mode": "正常拍照",
    "image_size": "4032×3024"
  },
  {
    "event_id": "949_related_1",
    "type": "photo",
    "caption": "徐静在周庄古镇入口处拍摄导视牌，背景是传统江南建筑风格",
    "title": "IMG_20250128_065500",
    "datetime": "2025-01-28 06:55:00",
    "location": {
      "province": "江苏省",
      "city": "苏州市",
      "district": "昆山市",
      "streetName": "全福路",
      "streetNumber": "XX号",
      "poi": "周庄古镇景区"
    },
    "faceRecognition": [
      "无"
    ],
    "imageTag": [
      "周庄古镇",
      "导视牌",
      "江南建筑",
      "景区入口",
      "清晨",
      "石板路",
      "旅游"
    ],
    "ocrText": "周庄古镇 - 国家5A级旅游景区 开放时间：8:00-17:00 门票价格：100元",
    "shoot_mode": "正常拍照",
    "image_size": "4032×3024"
  },
  {
    "event_id": "949_related_1",
    "type": "photo",
    "caption": "徐静与母亲李芳在周庄双桥边合影，背景是小桥流水人家",
    "title": "IMG_20250128_070200",
    "datetime": "2025-01-28 07:02:00",
    "location": {
      "province": "江苏省",
      "city": "苏州市",
      "district": "昆山市",
      "streetName": "北市街",
      "streetNumber": "XX号",
      "poi": "周庄双桥"
    },
    "faceRecognition": [
      "徐静",
      "李芳"
    ],
    "imageTag": [
      "周庄双桥",
      "母女合影",
      "小桥流水",
      "江南水乡",
      "清晨",
      "传统服饰",
      "旅游纪念"
    ],
    "ocrText": "无",
    "shoot_mode": "人像",
    "image_size": "3024×4032"
  },
  {
    "event_id": "956",
    "type": "photo",
    "caption": "徐静在周庄民宿房间内拍摄早餐，桌上有阿婆茶和定胜糕",
    "title": "IMG_20250128_114800",
    "datetime": "2025-01-28 11:48:00",
    "location": {
      "province": "江苏省",
      "city": "苏州市",
      "district": "昆山市",
      "streetName": "南湖街",
      "streetNumber": "XX号",
      "poi": "周庄古镇民宿"
    },
    "faceRecognition": [
      "无"
    ],
    "imageTag": [
      "阿婆茶",
      "定胜糕",
      "民宿早餐",
      "青花瓷茶具",
      "木质餐桌",
      "江南小吃",
      "热气腾腾"
    ],
    "ocrText": "无",
    "shoot_mode": "正常拍照",
    "image_size": "4032×3024"
  },
  {
    "event_id": "956",
    "type": "photo",
    "caption": "徐静拍摄民宿房间内部环境，展示传统江南风格的家具和装饰",
    "title": "IMG_20250128_115000",
    "datetime": "2025-01-28 11:50:00",
    "location": {
      "province": "江苏省",
      "city": "苏州市",
      "district": "昆山市",
      "streetName": "南湖街",
      "streetNumber": "XX号",
      "poi": "周庄古镇民宿"
    },
    "faceRecognition": [
      "无"
    ],
    "imageTag": [
      "民宿房间",
      "江南风格",
      "雕花木床",
      "红木家具",
      "纱帐",
      "青砖地面",
      "传统装饰"
    ],
    "ocrText": "无",
    "shoot_mode": "正常拍照",
    "image_size": "4032×3024"
  },
  {
    "event_id": "958_related_1",
    "type": "photo",
    "caption": "徐静在周庄工艺品店拍摄蓝印花布纪念品，展示传统手工技艺",
    "title": "IMG_20250128_133500",
    "datetime": "2025-01-28 13:35:00",
    "location": {
      "province": "江苏省",
      "city": "苏州市",
      "district": "昆山市",
      "streetName": "中市街",
      "streetNumber": "XX号",
      "poi": "周庄蓝印花布店"
    },
    "faceRecognition": [
      "无"
    ],
    "imageTag": [
      "蓝印花布",
      "手工艺品",
      "传统纹样",
      "靛蓝色",
      "棉布材质",
      "手工制作",
      "旅游纪念品"
    ],
    "ocrText": "周庄蓝印花布 - 非物质文化遗产 手工制作 价格：120元",
    "shoot_mode": "微距",
    "image_size": "3024×4032"
  },
  {
    "event_id": "959",
    "type": "photo",
    "caption": "徐静在三毛茶楼拍摄阿婆茶和定胜糕，桌上还有茶点拼盘",
    "title": "IMG_20250128_143500",
    "datetime": "2025-01-28 14:35:00",
    "location": {
      "province": "江苏省",
      "city": "苏州市",
      "district": "昆山市",
      "streetName": "南市街",
      "streetNumber": "XX号",
      "poi": "周庄三毛茶楼"
    },
    "faceRecognition": [
      "无"
    ],
    "imageTag": [
      "三毛茶楼",
      "阿婆茶",
      "定胜糕",
      "茶点拼盘",
      "紫砂茶壶",
      "木质茶盘",
      "江南茶文化"
    ],
    "ocrText": "三毛茶楼 - 百年老字号 阿婆茶套餐 68元/位",
    "shoot_mode": "正常拍照",
    "image_size": "4032×3024"
  },
  {
    "event_id": "960_related_1",
    "type": "photo",
    "caption": "徐静在周庄特产店拍摄万三蹄和阿婆菜等年货食材",
    "title": "IMG_20250128_153800",
    "datetime": "2025-01-28 15:38:00",
    "location": {
      "province": "江苏省",
      "city": "苏州市",
      "district": "昆山市",
      "streetName": "北市街",
      "streetNumber": "XX号",
      "poi": "周庄特产店"
    },
    "faceRecognition": [
      "无"
    ],
    "imageTag": [
      "万三蹄",
      "阿婆菜",
      "红灯笼",
      "春联",
      "年货采购",
      "真空包装",
      "传统食品"
    ],
    "ocrText": "周庄特产 - 万三蹄 88元/只 阿婆菜 28元/袋",
    "shoot_mode": "正常拍照",
    "image_size": "4032×3024"
  },
  {
    "event_id": "962",
    "type": "photo",
    "caption": "徐静全家在周庄年夜饭餐厅拍摄全家福，桌上摆满丰盛菜肴",
    "title": "IMG_20250128_180500",
    "datetime": "2025-01-28 18:05:00",
    "location": {
      "province": "江苏省",
      "city": "苏州市",
      "district": "昆山市",
      "streetName": "全功路",
      "streetNumber": "XX号",
      "poi": "周庄年夜饭餐厅"
    },
    "faceRecognition": [
      "徐静",
      "徐明",
      "李芳",
      "徐强"
    ],
    "imageTag": [
      "年夜饭",
      "全家福",
      "团圆饭",
      "丰盛菜肴",
      "红灯笼",
      "春节装饰",
      "家庭聚会"
    ],
    "ocrText": "无",
    "shoot_mode": "人像",
    "image_size": "4032×3024"
  },
  {
    "event_id": "962",
    "type": "photo",
    "caption": "徐静拍摄周庄年夜饭的特色菜肴，包括万三蹄和河鲜等",
    "title": "IMG_20250128_181000",
    "datetime": "2025-01-28 18:10:00",
    "location": {
      "province": "江苏省",
      "city": "苏州市",
      "district": "昆山市",
      "streetName": "全功路",
      "streetNumber": "XX号",
      "poi": "周庄年夜饭餐厅"
    },
    "faceRecognition": [
      "无"
    ],
    "imageTag": [
      "万三蹄",
      "清蒸白鱼",
      "油爆虾",
      "年夜饭菜肴",
      "陶瓷餐具",
      "热气腾腾",
      "传统美食"
    ],
    "ocrText": "无",
    "shoot_mode": "正常拍照",
    "image_size": "4032×3024"
  },
  {
    "event_id": "964",
    "type": "photo",
    "caption": "徐静在周庄夜景区拍摄乌篷船和荷花灯，水面倒映古建筑灯光",
    "title": "IMG_20250128_210500",
    "datetime": "2025-01-28 21:05:00",
    "location": {
      "province": "江苏省",
      "city": "苏州市",
      "district": "昆山市",
      "streetName": "后港街",
      "streetNumber": "XX号",
      "poi": "周庄夜游码头"
    },
    "faceRecognition": [
      "无"
    ],
    "imageTag": [
      "夜游周庄",
      "乌篷船",
      "荷花灯",
      "水面倒影",
      "古建筑灯光",
      "红色灯笼",
      "江南夜景"
    ],
    "ocrText": "周庄夜游 - 乌篷船票价 80元/人 荷花灯 10元/个",
    "shoot_mode": "夜景",
    "image_size": "4032×3024"
  },
  {
    "event_id": "964",
    "type": "photo",
    "caption": "徐静拍摄放荷花灯许愿的特写，荷花灯在水面缓缓飘动",
    "title": "IMG_20250128_210800",
    "datetime": "2025-01-28 21:08:00",
    "location": {
      "province": "江苏省",
      "city": "苏州市",
      "district": "昆山市",
      "streetName": "后港街",
      "streetNumber": "XX号",
      "poi": "周庄夜游码头"
    },
    "faceRecognition": [
      "无"
    ],
    "imageTag": [
      "荷花灯",
      "许愿",
      "水面",
      "烛光",
      "红色花瓣",
      "夜晚",
      "传统习俗"
    ],
    "ocrText": "无",
    "shoot_mode": "微距",
    "image_size": "3024×4032"
  },
  {
    "event_id": "969_related_1",
    "type": "photo",
    "caption": "会员系统优化方案的PPT截图，显示详细的流程图和操作步骤",
    "title": "IMG_20250129_074200",
    "datetime": "2025-01-29 07:42:00",
    "location": {
      "province": "上海市",
      "city": "上海市",
      "district": "浦东新区",
      "streetName": "世纪大道",
      "streetNumber": "88号",
      "poi": "服装零售店办公室"
    },
    "faceRecognition": "无",
    "imageTag": [
      "PPT截图",
      "会员系统",
      "流程图",
      "操作步骤",
      "会议资料",
      "电脑屏幕",
      "工作文档"
    ],
    "ocrText": "会员系统优化方案 - 2025年1月29日 - 操作流程图",
    "shoot_mode": "正常拍照",
    "image_size": "3024×4032"
  },
  {
    "event_id": "969_related_1",
    "type": "photo",
    "caption": "陈丽在会议中讲解优化方案，背景是办公室白板",
    "title": "IMG_20250129_074300",
    "datetime": "2025-01-29 07:43:00",
    "location": {
      "province": "上海市",
      "city": "上海市",
      "district": "浦东新区",
      "streetName": "世纪大道",
      "streetNumber": "88号",
      "poi": "服装零售店会议室"
    },
    "faceRecognition": [
      "陈丽"
    ],
    "imageTag": [
      "会议记录",
      "同事",
      "讲解",
      "白板",
      "工作场景",
      "职业装",
      "办公室"
    ],
    "ocrText": "无",
    "shoot_mode": "人像",
    "image_size": "4032×3024"
  },
  {
    "event_id": "974",
    "type": "photo",
    "caption": "财务管理课程学习界面截图，显示投资组合管理章节完成状态",
    "title": "IMG_20250129_131200",
    "datetime": "2025-01-29 13:12:00",
    "location": {
      "province": "上海市",
      "city": "上海市",
      "district": "浦东新区",
      "streetName": "张杨路",
      "streetNumber": "123号",
      "poi": "家中书房"
    },
    "faceRecognition": "无",
    "imageTag": [
      "学习界面",
      "财务管理",
      "投资组合",
      "手机屏幕",
      "学习积分",
      "课程进度",
      "教育APP"
    ],
    "ocrText": "投资组合管理 - 已完成 - 获得积分15分 - 下一章节：风险评估",
    "shoot_mode": "正常拍照",
    "image_size": "3024×4032"
  },
  {
    "event_id": "974",
    "type": "photo",
    "caption": "学习笔记手写记录，包含重点概念和计算公式",
    "title": "IMG_20250129_131500",
    "datetime": "2025-01-29 13:15:00",
    "location": {
      "province": "上海市",
      "city": "上海市",
      "district": "浦东新区",
      "streetName": "张杨路",
      "streetNumber": "123号",
      "poi": "家中书房"
    },
    "faceRecognition": "无",
    "imageTag": [
      "学习笔记",
      "手写记录",
      "计算公式",
      "笔记本",
      "财务管理",
      "重点概念",
      "学习资料"
    ],
    "ocrText": "投资组合管理 - 风险分散 - 收益率计算 - 资产配置",
    "shoot_mode": "微距",
    "image_size": "3024×4032"
  },
  {
    "event_id": "979",
    "type": "photo",
    "caption": "明日例会工作安排手写笔记，包含会员系统优化方案要点",
    "title": "IMG_20250129_203700",
    "datetime": "2025-01-29 20:37:00",
    "location": {
      "province": "上海市",
      "city": "上海市",
      "district": "浦东新区",
      "streetName": "张杨路",
      "streetNumber": "123号",
      "poi": "家中工作台"
    },
    "faceRecognition": "无",
    "imageTag": [
      "工作笔记",
      "例会安排",
      "手写记录",
      "会员系统",
      "工作计划",
      "笔记本",
      "工作准备"
    ],
    "ocrText": "明日例会9:00 - 会员系统优化方案汇报 - 重点：操作流程简化 - 目标：提升用户体验",
    "shoot_mode": "正常拍照",
    "image_size": "3024×4032"
  },
  {
    "event_id": "979",
    "type": "photo",
    "caption": "整理好的工作文档扫描件，包含详细的方案内容",
    "title": "IMG_20250129_204000",
    "datetime": "2025-01-29 20:40:00",
    "location": {
      "province": "上海市",
      "city": "上海市",
      "district": "浦东新区",
      "streetName": "张杨路",
      "streetNumber": "123号",
      "poi": "家中工作台"
    },
    "faceRecognition": "无",
    "imageTag": [
      "文档扫描",
      "工作资料",
      "方案文档",
      "A4纸",
      "办公文件",
      "文字资料",
      "扫描件"
    ],
    "ocrText": "会员系统优化方案详细说明 - 徐静 - 2025年1月29日 - 操作步骤1-10",
    "shoot_mode": "正常拍照",
    "image_size": "4032×3024"
  },
  {
    "event_id": "982",
    "type": "photo",
    "caption": "徐静在厨房制作营养早餐，餐桌上摆放着燕麦粥和水果拼盘",
    "title": "IMG_20250130_064520",
    "datetime": "2025-01-30 06:45:20",
    "location": {
      "province": "上海市",
      "city": "上海市",
      "district": "浦东新区",
      "streetName": "张杨路",
      "streetNumber": "123号",
      "poi": "徐静家厨房"
    },
    "faceRecognition": "无",
    "imageTag": [
      "早餐",
      "燕麦粥",
      "水果拼盘",
      "厨房",
      "营养餐",
      "早晨",
      "健康饮食"
    ],
    "ocrText": "无",
    "shoot_mode": "正常拍照",
    "image_size": "4032×3024"
  },
  {
    "event_id": "982",
    "type": "photo",
    "caption": "徐静在小区附近超市采购食材，购物车内装满新鲜蔬菜和水果",
    "title": "IMG_20250130_083015",
    "datetime": "2025-01-30 08:30:15",
    "location": {
      "province": "上海市",
      "city": "上海市",
      "district": "浦东新区",
      "streetName": "张杨路",
      "streetNumber": "156号",
      "poi": "联华超市"
    },
    "faceRecognition": "无",
    "imageTag": [
      "超市",
      "购物车",
      "新鲜蔬菜",
      "水果",
      "采购",
      "食材",
      "日常生活"
    ],
    "ocrText": "联华超市 - 营业时间7:00-22:00",
    "shoot_mode": "正常拍照",
    "image_size": "3024×4032"
  },
  {
    "event_id": "983",
    "type": "photo",
    "caption": "徐静在商场服装店整理春季新品陈列，衣架上挂满江南风服饰",
    "title": "IMG_20250130_094530",
    "datetime": "2025-01-30 09:45:30",
    "location": {
      "province": "上海市",
      "city": "上海市",
      "district": "浦东新区",
      "streetName": "世纪大道",
      "streetNumber": "88号",
      "poi": "明方服饰店"
    },
    "faceRecognition": "无",
    "imageTag": [
      "服装店",
      "春季新品",
      "江南风服饰",
      "衣架",
      "陈列",
      "工作场景",
      "时尚"
    ],
    "ocrText": "明方服饰 - 春季新品上市 满500减100",
    "shoot_mode": "正常拍照",
    "image_size": "4032×3024"
  },
  {
    "event_id": "988",
    "type": "photo",
    "caption": "徐静在办公室查看春季新品面料样品，桌上摆放不同材质布料",
    "title": "IMG_20250130_103520",
    "datetime": "2025-01-30 10:35:20",
    "location": {
      "province": "上海市",
      "city": "上海市",
      "district": "浦东新区",
      "streetName": "世纪大道",
      "streetNumber": "88号",
      "poi": "明方服饰办公室"
    },
    "faceRecognition": "无",
    "imageTag": [
      "办公室",
      "面料样品",
      "布料",
      "春季新品",
      "工作",
      "材质",
      "样品"
    ],
    "ocrText": "广州风格纺织 - 春季新品面料编号：SP2025-03",
    "shoot_mode": "微距",
    "image_size": "4032×3024"
  },
  {
    "event_id": "990",
    "type": "photo",
    "caption": "徐静在商场餐厅享用抹茶拿铁和草莓蛋糕下午茶",
    "title": "IMG_20250130_143025",
    "datetime": "2025-01-30 14:30:25",
    "location": {
      "province": "上海市",
      "city": "上海市",
      "district": "浦东新区",
      "streetName": "世纪大道",
      "streetNumber": "66号",
      "poi": "星巴克"
    },
    "faceRecognition": "无",
    "imageTag": [
      "抹茶拿铁",
      "草莓蛋糕",
      "下午茶",
      "咖啡厅",
      "甜点",
      "休闲时光"
    ],
    "ocrText": "星巴克 - 抹茶拿铁 价格：35元",
    "shoot_mode": "正常拍照",
    "image_size": "3024×4032"
  },
  {
    "event_id": "996",
    "type": "photo",
    "caption": "徐静在周庄古镇餐厅享用年夜饭，桌上摆满传统江南菜肴",
    "title": "IMG_20250130_173520",
    "datetime": "2025-01-30 17:35:20",
    "location": {
      "province": "江苏省",
      "city": "苏州市",
      "district": "昆山市",
      "streetName": "全福路",
      "streetNumber": "XX号",
      "poi": "周庄古镇"
    },
    "faceRecognition": "无",
    "imageTag": [
      "年夜饭",
      "周庄",
      "江南菜肴",
      "古镇",
      "餐厅",
      "传统美食",
      "春节"
    ],
    "ocrText": "周庄古镇 - 国家5A级旅游景区 门票：100元",
    "shoot_mode": "正常拍照",
    "image_size": "4032×3024"
  },
  {
    "event_id": "996",
    "type": "photo",
    "caption": "徐静在周庄古镇小桥上拍摄夜景，灯笼映照在水面上",
    "title": "IMG_20250130_180015",
    "datetime": "2025-01-30 18:00:15",
    "location": {
      "province": "江苏省",
      "city": "苏州市",
      "district": "昆山市",
      "streetName": "全福路",
      "streetNumber": "XX号",
      "poi": "周庄双桥"
    },
    "faceRecognition": "无",
    "imageTag": [
      "周庄夜景",
      "小桥",
      "灯笼",
      "水面倒影",
      "古镇",
      "春节氛围",
      "夜景"
    ],
    "ocrText": "双桥 - 周庄标志性景点",
    "shoot_mode": "夜景",
    "image_size": "4032×3024"
  },
  {
    "event_id": "1004",
    "type": "photo",
    "caption": "徐明在家中客厅拆开新年红包，红包上印有金色福字和生肖图案",
    "title": "IMG_20250131_073700",
    "datetime": "2025-01-31 07:37:00",
    "location": {
      "province": "上海市",
      "city": "上海市",
      "district": "浦东新区",
      "streetName": "张杨路",
      "streetNumber": "123号",
      "poi": "徐明家"
    },
    "faceRecognition": [
      "徐明"
    ],
    "imageTag": [
      "新年红包",
      "福字",
      "生肖图案",
      "现金",
      "红色信封",
      "金色装饰",
      "客厅",
      "早晨"
    ],
    "ocrText": "新年快乐 888元",
    "shoot_mode": "正常拍照",
    "image_size": "4032×3024"
  },
  {
    "event_id": "1004",
    "type": "photo",
    "caption": "微信支付转账成功界面截图，显示888元转账金额和新年红包备注",
    "title": "IMG_20250131_073720",
    "datetime": "2025-01-31 07:37:20",
    "location": {
      "province": "上海市",
      "city": "上海市",
      "district": "浦东新区",
      "streetName": "张杨路",
      "streetNumber": "123号",
      "poi": "徐静家"
    },
    "faceRecognition": [
      "无"
    ],
    "imageTag": [
      "手机屏幕",
      "微信支付",
      "转账记录",
      "新年红包",
      "金额显示",
      "支付成功",
      "界面截图"
    ],
    "ocrText": "微信支付 向徐明转账888.00元 备注：新年红包 当前余额12,345.67元",
    "shoot_mode": "正常拍照",
    "image_size": "3024×4032"
  },
  {
    "event_id": "1007",
    "type": "photo",
    "caption": "孙秀英通过微信发送的活动资料文档截图，包含活动流程和时间安排",
    "title": "IMG_20250131_105000",
    "datetime": "2025-01-31 10:50:00",
    "location": {
      "province": "上海市",
      "city": "上海市",
      "district": "浦东新区",
      "streetName": "张杨路",
      "streetNumber": "123号",
      "poi": "徐静家"
    },
    "faceRecognition": [
      "无"
    ],
    "imageTag": [
      "微信聊天",
      "文档截图",
      "活动资料",
      "流程安排",
      "时间表",
      "手机屏幕"
    ],
    "ocrText": "社区春节联欢活动 时间：2025年2月10日 地点：社区活动中心 参与人数：50人",
    "shoot_mode": "正常拍照",
    "image_size": "3024×4032"
  },
  {
    "event_id": "1007",
    "type": "photo",
    "caption": "孙秀英手写的活动注意事项便条，放在茶几上拍摄",
    "title": "IMG_20250131_105200",
    "datetime": "2025-01-31 10:52:00",
    "location": {
      "province": "上海市",
      "city": "上海市",
      "district": "浦东新区",
      "streetName": "张杨路",
      "streetNumber": "123号",
      "poi": "徐静家"
    },
    "faceRecognition": [
      "无"
    ],
    "imageTag": [
      "手写便条",
      "注意事项",
      "圆珠笔",
      "茶几",
      "纸张",
      "字迹工整"
    ],
    "ocrText": "活动注意事项：1.提前30分钟到场 2.自带水杯 3.穿着舒适服装",
    "shoot_mode": "微距",
    "image_size": "4032×3024"
  },
  {
    "event_id": "1010",
    "type": "photo",
    "caption": "季度报表Excel表格在电脑屏幕上的显示，包含销售数据和图表",
    "title": "IMG_20250131_153500",
    "datetime": "2025-01-31 15:35:00",
    "location": {
      "province": "上海市",
      "city": "上海市",
      "district": "浦东新区",
      "streetName": "世纪大道",
      "streetNumber": "88号",
      "poi": "服装零售店"
    },
    "faceRecognition": [
      "无"
    ],
    "imageTag": [
      "电脑屏幕",
      "Excel表格",
      "季度报表",
      "销售数据",
      "柱状图",
      "办公环境"
    ],
    "ocrText": "2025年第一季度销售报表 总销售额：1,250,000元 同比增长：15.2%",
    "shoot_mode": "正常拍照",
    "image_size": "4032×3024"
  },
  {
    "event_id": "1010",
    "type": "photo",
    "caption": "刘伟在办公室讨论季度报表时的侧脸照片，背后是工作白板",
    "title": "IMG_20250131_153600",
    "datetime": "2025-01-31 15:36:00",
    "location": {
      "province": "上海市",
      "city": "上海市",
      "district": "浦东新区",
      "streetName": "世纪大道",
      "streetNumber": "88号",
      "poi": "服装零售店办公室"
    },
    "faceRecognition": [
      "刘伟"
    ],
    "imageTag": [
      "同事",
      "办公室",
      "工作讨论",
      "白板",
      "职业装",
      "侧脸",
      "工作环境"
    ],
    "ocrText": "无",
    "shoot_mode": "人像",
    "image_size": "3024×4032"
  },
  {
    "event_id": "1016",
    "type": "photo",
    "caption": "今日销售数据汇总表格打印件，放在办公桌上用手机拍摄",
    "title": "IMG_20250131_211600",
    "datetime": "2025-01-31 21:16:00",
    "location": {
      "province": "上海市",
      "city": "上海市",
      "district": "浦东新区",
      "streetName": "张杨路",
      "streetNumber": "123号",
      "poi": "徐静家书房"
    },
    "faceRecognition": [
      "无"
    ],
    "imageTag": [
      "销售数据",
      "打印表格",
      "办公桌",
      "A4纸",
      "数字统计",
      "晚间工作"
    ],
    "ocrText": "今日销售汇总 日期：2025-01-31 总销售额：45,680元 客单价：356元",
    "shoot_mode": "正常拍照",
    "image_size": "4032×3024"
  },
  {
    "event_id": "1016",
    "type": "photo",
    "caption": "库存清单Excel表格在笔记本电脑上的截图，显示各类服装库存数量",
    "title": "IMG_20250131_211800",
    "datetime": "2025-01-31 21:18:00",
    "location": {
      "province": "上海市",
      "city": "上海市",
      "district": "浦东新区",
      "streetName": "张杨路",
      "streetNumber": "123号",
      "poi": "徐静家书房"
    },
    "faceRecognition": [
      "无"
    ],
    "imageTag": [
      "笔记本电脑",
      "Excel表格",
      "库存清单",
      "数据统计",
      "屏幕截图",
      "晚间"
    ],
    "ocrText": "库存清单 连衣裙：128件 衬衫：256件 裤子：189件 外套：75件",
    "shoot_mode": "正常拍照",
    "image_size": "3024×4032"
  },
  {
    "event_id": "1019",
    "type": "photo",
    "caption": "徐静在苏州观前街松鹤楼餐厅拍摄松鼠桂鱼，餐桌上摆着精致餐具",
    "title": "IMG_20250201_121830",
    "datetime": "2025-02-01 12:18:30",
    "location": {
      "province": "江苏省",
      "city": "苏州市",
      "district": "姑苏区",
      "streetName": "观前街",
      "streetNumber": "15号",
      "poi": "松鹤楼"
    },
    "faceRecognition": [
      "无"
    ],
    "imageTag": [
      "松鼠桂鱼",
      "苏帮菜",
      "餐桌",
      "餐具",
      "美食",
      "午餐"
    ],
    "ocrText": "松鹤楼 - 始创于1737年 人均消费：200元",
    "shoot_mode": "正常拍照",
    "image_size": "4032×3024"
  },
  {
    "event_id": "1019",
    "type": "photo",
    "caption": "徐静在松鹤楼拍摄餐厅内部环境，传统中式装修风格",
    "title": "IMG_20250201_121900",
    "datetime": "2025-02-01 12:19:00",
    "location": {
      "province": "江苏省",
      "city": "苏州市",
      "district": "姑苏区",
      "streetName": "观前街",
      "streetNumber": "15号",
      "poi": "松鹤楼"
    },
    "faceRecognition": [
      "无"
    ],
    "imageTag": [
      "餐厅环境",
      "中式装修",
      "灯笼",
      "木桌椅",
      "传统风格",
      "观前街"
    ],
    "ocrText": "松鹤楼 - 中华老字号 苏州观前街店",
    "shoot_mode": "正常拍照",
    "image_size": "3024×4032"
  },
  {
    "event_id": "1020",
    "type": "photo",
    "caption": "徐静拍摄春季面料样品，在办公桌上展示不同颜色布料",
    "title": "IMG_20250201_071000",
    "datetime": "2025-02-01 07:10:00",
    "location": {
      "province": "上海市",
      "city": "上海市",
      "district": "浦东新区",
      "streetName": "世纪大道",
      "streetNumber": "88号",
      "poi": "服装店办公室"
    },
    "faceRecognition": [
      "无"
    ],
    "imageTag": [
      "面料样品",
      "春季新款",
      "布料",
      "颜色对比",
      "办公桌",
      "工作记录"
    ],
    "ocrText": "春季面料样品 - 编号：SP25-03 供应商：广州时尚",
    "shoot_mode": "微距",
    "image_size": "4032×3024"
  },
  {
    "event_id": "1020",
    "type": "photo",
    "caption": "徐静在办公室手写面料样品记录，笔记本上详细标注",
    "title": "IMG_20250201_071200",
    "datetime": "2025-02-01 07:12:00",
    "location": {
      "province": "上海市",
      "city": "上海市",
      "district": "浦东新区",
      "streetName": "世纪大道",
      "streetNumber": "88号",
      "poi": "服装店办公室"
    },
    "faceRecognition": [
      "无"
    ],
    "imageTag": [
      "手写记录",
      "笔记本",
      "笔",
      "面料信息",
      "工作笔记",
      "办公环境"
    ],
    "ocrText": "春季面料样品记录 日期：2025-02-01 质量评级：优",
    "shoot_mode": "正常拍照",
    "image_size": "3024×4032"
  },
  {
    "event_id": "1021",
    "type": "photo",
    "caption": "徐静在酒店房间拍摄整理好的行李箱，整齐摆放衣物",
    "title": "IMG_20250201_073600",
    "datetime": "2025-02-01 07:36:00",
    "location": {
      "province": "江苏省",
      "city": "苏州市",
      "district": "姑苏区",
      "streetName": "观前街",
      "streetNumber": "XX号",
      "poi": "酒店房间"
    },
    "faceRecognition": [
      "无"
    ],
    "imageTag": [
      "行李箱",
      "衣物整理",
      "收纳",
      "旅行用品",
      "酒店房间",
      "出发准备"
    ],
    "ocrText": "无",
    "shoot_mode": "正常拍照",
    "image_size": "4032×3024"
  },
  {
    "event_id": "1023",
    "type": "photo",
    "caption": "徐静拍摄园林设计元素照片，传统花窗图案",
    "title": "IMG_20250201_091600",
    "datetime": "2025-02-01 09:16:00",
    "location": {
      "province": "江苏省",
      "city": "苏州市",
      "district": "姑苏区",
      "streetName": "东北街",
      "streetNumber": "XX号",
      "poi": "拙政园"
    },
    "faceRecognition": [
      "无"
    ],
    "imageTag": [
      "园林设计",
      "花窗",
      "传统图案",
      "苏州园林",
      "建筑细节",
      "文化元素"
    ],
    "ocrText": "拙政园 - 世界文化遗产 门票：80元",
    "shoot_mode": "微距",
    "image_size": "4032×3024"
  },
  {
    "event_id": "1023",
    "type": "photo",
    "caption": "徐静手写记录园林设计元素，笔记本上绘制图案",
    "title": "IMG_20250201_091800",
    "datetime": "2025-02-01 09:18:00",
    "location": {
      "province": "江苏省",
      "city": "苏州市",
      "district": "姑苏区",
      "streetName": "东北街",
      "streetNumber": "XX号",
      "poi": "拙政园"
    },
    "faceRecognition": [
      "无"
    ],
    "imageTag": [
      "手绘图案",
      "笔记本",
      "设计记录",
      "园林元素",
      "工作笔记",
      "创意灵感"
    ],
    "ocrText": "园林设计元素记录 日期：2025-02-01 元素类型：花窗",
    "shoot_mode": "正常拍照",
    "image_size": "3024×4032"
  },
  {
    "event_id": "1025",
    "type": "photo",
    "caption": "徐静在采芝斋购买苏州特产，展示各种糕点糖果",
    "title": "IMG_20250201_163700",
    "datetime": "2025-02-01 16:37:00",
    "location": {
      "province": "江苏省",
      "city": "苏州市",
      "district": "姑苏区",
      "streetName": "观前街",
      "streetNumber": "XX号",
      "poi": "采芝斋"
    },
    "faceRecognition": [
      "无"
    ],
    "imageTag": [
      "苏州特产",
      "糕点",
      "糖果",
      "采芝斋",
      "伴手礼",
      "传统美食"
    ],
    "ocrText": "采芝斋 - 创始于1870年 苏州老字号",
    "shoot_mode": "正常拍照",
    "image_size": "4032×3024"
  },
  {
    "event_id": "1029",
    "type": "photo",
    "caption": "徐静在金鸡湖酒店房间拍摄夜景，湖面灯光璀璨",
    "title": "IMG_20250201_172500",
    "datetime": "2025-02-01 17:25:00",
    "location": {
      "province": "江苏省",
      "city": "苏州市",
      "district": "工业园区",
      "streetName": "星港街",
      "streetNumber": "XX号",
      "poi": "金鸡湖酒店"
    },
    "faceRecognition": [
      "无"
    ],
    "imageTag": [
      "金鸡湖",
      "夜景",
      "城市灯光",
      "湖面",
      "酒店房间",
      "苏州夜景"
    ],
    "ocrText": "无",
    "shoot_mode": "夜景",
    "image_size": "4032×3024"
  },
  {
    "event_id": "1029",
    "type": "photo",
    "caption": "徐静拍摄酒店房间设施，整洁的床铺和家具",
    "title": "IMG_20250201_172200",
    "datetime": "2025-02-01 17:22:00",
    "location": {
      "province": "江苏省",
      "city": "苏州市",
      "district": "工业园区",
      "streetName": "星港街",
      "streetNumber": "XX号",
      "poi": "金鸡湖酒店"
    },
    "faceRecognition": [
      "无"
    ],
    "imageTag": [
      "酒店房间",
      "床铺",
      "家具",
      "设施",
      "整洁",
      "旅行住宿"
    ],
    "ocrText": "无",
    "shoot_mode": "正常拍照",
    "image_size": "3024×4032"
  },
  {
    "event_id": "1032",
    "type": "photo",
    "caption": "徐静手写数字化营销改进点，笔记本详细记录",
    "title": "IMG_20250201_193600",
    "datetime": "2025-02-01 19:36:00",
    "location": {
      "province": "江苏省",
      "city": "苏州市",
      "district": "工业园区",
      "streetName": "星港街",
      "streetNumber": "XX号",
      "poi": "金鸡湖酒店"
    },
    "faceRecognition": [
      "无"
    ],
    "imageTag": [
      "手写笔记",
      "数字化营销",
      "改进点",
      "工作记录",
      "笔记本",
      "创意想法"
    ],
    "ocrText": "数字化营销改进点 1.社交媒体推广 2.线上商城优化 3.客户数据分析",
    "shoot_mode": "正常拍照",
    "image_size": "3024×4032"
  },
  {
    "event_id": "1034",
    "type": "photo",
    "caption": "徐静拍摄手机健康数据界面，显示19000步记录",
    "title": "IMG_20250201_212100",
    "datetime": "2025-02-01 21:21:00",
    "location": {
      "province": "江苏省",
      "city": "苏州市",
      "district": "工业园区",
      "streetName": "星港街",
      "streetNumber": "XX号",
      "poi": "金鸡湖酒店"
    },
    "faceRecognition": [
      "无"
    ],
    "imageTag": [
      "健康数据",
      "步数记录",
      "手机界面",
      "运动",
      "健康管理",
      "数字统计"
    ],
    "ocrText": "今日步数：19000步 距离：12.5公里 消耗：450千卡",
    "shoot_mode": "正常拍照",
    "image_size": "4032×3024"
  }
]